{
  "data" : [ {
    "address" : "Calle Miguel Moya nº 1",
    "geometry" : {
      "type" : "Point",
      "coordinates" : [ -3.7058415, 40.4205886 ]
    },
    "id" : 3,
    "name" : "Miguel Moya",
    "number" : "2",
    "lines" : null
  }, {
    "address" : "Plaza del Conde del Valle de Súchil nº 3",
    "geometry" : {
      "type" : "Point",
      "coordinates" : [ -3.7069171, 40.4302937 ]
    },
    "id" : 4,
    "name" : "Plaza Conde Suchil",
    "number" : "3",
    "lines" : null
  }, {
    "address" : "Calle Manuela Malasaña nº 5",
    "geometry" : {
      "type" : "Point",
      "coordinates" : [ -3.7025875, 40.4285524 ]
    },
    "id" : 5,
    "name" : "Malasaña",
    "number" : "4",
    "lines" : null
  }, {
    "address" : "Calle Fuencarral nº 108",
    "geometry" : {
      "type" : "Point",
      "coordinates" : [ -3.70205, 40.42852 ]
    },
    "id" : 6,
    "name" : "Fuencarral",
    "number" : "5",
    "lines" : null
  }, {
    "address" : "Calle Hortaleza nº 63",
    "geometry" : {
      "type" : "Point",
      "coordinates" : [ -3.698447, 40.424148 ]
    },
    "id" : 7,
    "name" : "Colegio Arquitectos",
    "number" : "6",
    "lines" : null
  }, {
    "address" : "Calle Hortaleza nº 75",
    "geometry" : {
      "type" : "Point",
      "coordinates" : [ -3.6977715, 40.4251906 ]
    },
    "id" : 8,
    "name" : "Hortaleza",
    "number" : "7",
    "lines" : null
  }, {
    "address" : "Plaza de San Miguel nº 9",
    "geometry" : {
      "type" : "Point",
      "coordinates" : [ -3.7095084, 40.4156057 ]
    },
    "id" : 10,
    "name" : "Plaza de San Miguel",
    "number" : "9",
    "lines" : null
  }, {
    "address" : "Calle Marqués de la Ensenada nº 16",
    "geometry" : {
      "type" : "Point",
      "coordinates" : [ -3.69214, 40.42533 ]
    },
    "id" : 11,
    "name" : "Marqués de la Ensenada",
    "number" : "10",
    "lines" : null
  }, {
    "address" : "Calle San Andrés nº 18",
    "geometry" : {
      "type" : "Point",
      "coordinates" : [ -3.7035918, 40.4269483 ]
    },
    "id" : 12,
    "name" : "San Andrés",
    "number" : "11",
    "lines" : null
  }, {
    "address" : "Calle San Bernardo nº 85",
    "geometry" : {
      "type" : "Point",
      "coordinates" : [ -3.7061931, 40.4284246 ]
    },
    "id" : 13,
    "name" : "San Hermenegildo",
    "number" : "12",
    "lines" : null
  }, {
    "address" : "Calle Conde Duque nº 22",
    "geometry" : {
      "type" : "Point",
      "coordinates" : [ -3.7104417, 40.4273264 ]
    },
    "id" : 14,
    "name" : "Conde Duque",
    "number" : "13",
    "lines" : null
  }, {
    "address" : "Calle Duque de Liria",
    "geometry" : {
      "type" : "Point",
      "coordinates" : [ -3.713479, 40.4260957 ]
    },
    "id" : 15,
    "name" : "Ventura Rodríguez",
    "number" : "14",
    "lines" : null
  }, {
    "address" : "Calle San Vicente Ferrer nº 64",
    "geometry" : {
      "type" : "Point",
      "coordinates" : [ -3.7074453, 40.4262383 ]
    },
    "id" : 16,
    "name" : "San Vicente Ferrer",
    "number" : "15",
    "lines" : null
  }, {
    "address" : "Calle San Bernardo nº 22",
    "geometry" : {
      "type" : "Point",
      "coordinates" : [ -3.7075065, 40.4230721 ]
    },
    "id" : 17,
    "name" : "San Bernardo",
    "number" : "16",
    "lines" : null
  }, {
    "address" : "Plaza de Carlos Cambronero nº 2",
    "geometry" : {
      "type" : "Point",
      "coordinates" : [ -3.7038312, 40.4232649 ]
    },
    "id" : 18,
    "name" : "Carlos Cambronero",
    "number" : "17",
    "lines" : null
  }, {
    "address" : "Plaza de Pedro Zerolo nº 1",
    "geometry" : {
      "type" : "Point",
      "coordinates" : [ -3.6996502, 40.4207773 ]
    },
    "id" : 19,
    "name" : "Plaza de Pedro Zerolo",
    "number" : "18",
    "lines" : null
  }, {
    "address" : "Calle Alcalá nº 49",
    "geometry" : {
      "type" : "Point",
      "coordinates" : [ -3.6954615, 40.4192342 ]
    },
    "id" : 21,
    "name" : "Banco de España A",
    "number" : "20a",
    "lines" : null
  }, {
    "address" : "Calle Jacometrezo nº 3",
    "geometry" : {
      "type" : "Point",
      "coordinates" : [ -3.7065376, 40.4200783 ]
    },
    "id" : 25,
    "name" : "Jacometrezo",
    "number" : "22",
    "lines" : null
  }, {
    "address" : "Plaza de Santo Domingo nº 1",
    "geometry" : {
      "type" : "Point",
      "coordinates" : [ -3.7081246, 40.4202834 ]
    },
    "id" : 26,
    "name" : "Santo Domingo",
    "number" : "23",
    "lines" : null
  }, {
    "address" : "Calle Carlos III nº 1",
    "geometry" : {
      "type" : "Point",
      "coordinates" : [ -3.710692, 40.417908 ]
    },
    "id" : 27,
    "name" : "Palacio de Oriente",
    "number" : "24",
    "lines" : null
  }, {
    "address" : "Plaza de Celenque nº 1",
    "geometry" : {
      "type" : "Point",
      "coordinates" : [ -3.7057791, 40.4173703 ]
    },
    "id" : 28,
    "name" : "Plaza de Celenque A",
    "number" : "25a",
    "lines" : null
  }, {
    "address" : "Plaza de Celenque nº 1",
    "geometry" : {
      "type" : "Point",
      "coordinates" : [ -3.7063837, 40.4172781 ]
    },
    "id" : 29,
    "name" : "Plaza de Celenque B",
    "number" : "25b",
    "lines" : null
  }, {
    "address" : "Plaza de las Salesas 7",
    "geometry" : {
      "type" : "Point",
      "coordinates" : [ -3.694475, 40.423855 ]
    },
    "id" : 30,
    "name" : "Plaza de las Salesas",
    "number" : "26",
    "lines" : null
  }, {
    "address" : "Calle Jesús nº 1",
    "geometry" : {
      "type" : "Point",
      "coordinates" : [ -3.6956178, 40.4132798 ]
    },
    "id" : 31,
    "name" : "Huertas",
    "number" : "27",
    "lines" : null
  }, {
    "address" : "Calle Alcalá nº 27",
    "geometry" : {
      "type" : "Point",
      "coordinates" : [ -3.6984368, 40.4181518 ]
    },
    "id" : 32,
    "name" : "Sevilla",
    "number" : "28",
    "lines" : null
  }, {
    "address" : "Calle del Marqués de Cubas nº 25",
    "geometry" : {
      "type" : "Point",
      "coordinates" : [ -3.6957355, 40.4162619 ]
    },
    "id" : 33,
    "name" : "Marqués de Cubas",
    "number" : "29",
    "lines" : null
  }, {
    "address" : "Calle Pavía nº 6",
    "geometry" : {
      "type" : "Point",
      "coordinates" : [ -3.711504, 40.4192095 ]
    },
    "id" : 34,
    "name" : "San Quintín",
    "number" : "30",
    "lines" : null
  }, {
    "address" : "Calle Mayor nº 20",
    "geometry" : {
      "type" : "Point",
      "coordinates" : [ -3.7068969, 40.4163638 ]
    },
    "id" : 35,
    "name" : "Calle Mayor",
    "number" : "31",
    "lines" : null
  }, {
    "address" : "Plaza de la Provincia nº 1",
    "geometry" : {
      "type" : "Point",
      "coordinates" : [ -3.7061032, 40.4150099 ]
    },
    "id" : 36,
    "name" : "Plaza de la Provincia",
    "number" : "32",
    "lines" : null
  }, {
    "address" : "Calle Carretas nº 8",
    "geometry" : {
      "type" : "Point",
      "coordinates" : [ -3.7030833, 40.4165039 ]
    },
    "id" : 37,
    "name" : "Carretas",
    "number" : "33",
    "lines" : null
  }, {
    "address" : "Plaza de Jacinto Benavente",
    "geometry" : {
      "type" : "Point",
      "coordinates" : [ -3.7036825, 40.4146755 ]
    },
    "id" : 38,
    "name" : "Jacinto Benavente",
    "number" : "34",
    "lines" : null
  }, {
    "address" : "Plaza del Cordón",
    "geometry" : {
      "type" : "Point",
      "coordinates" : [ -3.7103285, 40.4141931 ]
    },
    "id" : 39,
    "name" : "Plaza del Cordón",
    "number" : "35",
    "lines" : null
  }, {
    "address" : "Plaza de Ramales",
    "geometry" : {
      "type" : "Point",
      "coordinates" : [ -3.71183, 40.4168 ]
    },
    "id" : 40,
    "name" : "Plaza Ramales",
    "number" : "36",
    "lines" : null
  }, {
    "address" : "Plaza de San Francisco nº 5",
    "geometry" : {
      "type" : "Point",
      "coordinates" : [ -3.714113, 40.4108 ]
    },
    "id" : 41,
    "name" : "Plaza de San Francisco",
    "number" : "37",
    "lines" : null
  }, {
    "address" : "Carrera de San Francisco nº 1",
    "geometry" : {
      "type" : "Point",
      "coordinates" : [ -3.7114762, 40.4114041 ]
    },
    "id" : 42,
    "name" : "Plaza de los Carros",
    "number" : "38",
    "lines" : null
  }, {
    "address" : "Plaza de la Cebada nº 16 ",
    "geometry" : {
      "type" : "Point",
      "coordinates" : [ -3.7088337, 40.4112744 ]
    },
    "id" : 43,
    "name" : "Plaza de la Cebada",
    "number" : "39",
    "lines" : null
  }, {
    "address" : "Plaza del Conde de Romanones nº 9",
    "geometry" : {
      "type" : "Point",
      "coordinates" : [ -3.7049407, 40.4138846 ]
    },
    "id" : 44,
    "name" : "Conde de Romanones",
    "number" : "40",
    "lines" : null
  }, {
    "address" : "Calle Atocha nº 54",
    "geometry" : {
      "type" : "Point",
      "coordinates" : [ -3.6991147, 40.4122047 ]
    },
    "id" : 45,
    "name" : "Antón Martín",
    "number" : "41",
    "lines" : null
  }, {
    "address" : "Calle Atocha nº 95",
    "geometry" : {
      "type" : "Point",
      "coordinates" : [ -3.6982318, 40.4107085 ]
    },
    "id" : 46,
    "name" : "Santa Isabel",
    "number" : "42",
    "lines" : null
  }, {
    "address" : "Calle Lavapiés nº 34",
    "geometry" : {
      "type" : "Point",
      "coordinates" : [ -3.7025024, 40.4101564 ]
    },
    "id" : 47,
    "name" : "Jesús y María",
    "number" : "43",
    "lines" : null
  }, {
    "address" : "Calle Mesón de Paredes nº 35",
    "geometry" : {
      "type" : "Point",
      "coordinates" : [ -3.7040666, 40.4097617 ]
    },
    "id" : 48,
    "name" : "Plaza de Nelson Mandela",
    "number" : "44",
    "lines" : null
  }, {
    "address" : "Glorieta de la Puerta de Toledo nº 1",
    "geometry" : {
      "type" : "Point",
      "coordinates" : [ -3.7110513, 40.4070358 ]
    },
    "id" : 49,
    "name" : "Puerta de Toledo",
    "number" : "45",
    "lines" : null
  }, {
    "address" : "Glorieta de Embajadores nº 6",
    "geometry" : {
      "type" : "Point",
      "coordinates" : [ -3.7028265, 40.4047851 ]
    },
    "id" : 51,
    "name" : "Embajadores 1",
    "number" : "47",
    "lines" : null
  }, {
    "address" : "Glorieta de Embajadores nº 2",
    "geometry" : {
      "type" : "Point",
      "coordinates" : [ -3.7022591, 40.4056107 ]
    },
    "id" : 52,
    "name" : "Embajadores 2",
    "number" : "48",
    "lines" : null
  }, {
    "address" : "Ronda de Atocha nº 34",
    "geometry" : {
      "type" : "Point",
      "coordinates" : [ -3.6992759, 40.4060941 ]
    },
    "id" : 53,
    "name" : "Casa Encendida",
    "number" : "49",
    "lines" : null
  }, {
    "address" : "Calle Santa Isabel nº 57",
    "geometry" : {
      "type" : "Point",
      "coordinates" : [ -3.6933463, 40.4083684 ]
    },
    "id" : 54,
    "name" : "Museo Reina Sofía",
    "number" : "50",
    "lines" : null
  }, {
    "address" : "Ronda de Atocha nº 2",
    "geometry" : {
      "type" : "Point",
      "coordinates" : [ -3.6935205, 40.4075606 ]
    },
    "id" : 55,
    "name" : "Ronda de Atocha",
    "number" : "51",
    "lines" : null
  }, {
    "address" : "Plaza de Santa Ana nº 10",
    "geometry" : {
      "type" : "Point",
      "coordinates" : [ -3.7007164, 40.4144226 ]
    },
    "id" : 56,
    "name" : "Plaza de Santa Ana",
    "number" : "52",
    "lines" : null
  }, {
    "address" : "Calle Valencia nº 1",
    "geometry" : {
      "type" : "Point",
      "coordinates" : [ -3.7007111, 40.4083061 ]
    },
    "id" : 57,
    "name" : "Plaza de Lavapiés",
    "number" : "53",
    "lines" : null
  }, {
    "address" : "Calle Barceló nº 7",
    "geometry" : {
      "type" : "Point",
      "coordinates" : [ -3.700423, 40.4266828 ]
    },
    "id" : 58,
    "name" : "Barceló",
    "number" : "54",
    "lines" : null
  }, {
    "address" : "Plaza de San Ildefonso",
    "geometry" : {
      "type" : "Point",
      "coordinates" : [ -3.7020842, 40.4239757 ]
    },
    "id" : 59,
    "name" : "Plaza de San Ildefonso",
    "number" : "55",
    "lines" : null
  }, {
    "address" : "Plaza del Carmen nº 1",
    "geometry" : {
      "type" : "Point",
      "coordinates" : [ -3.7032414, 40.4184192 ]
    },
    "id" : 60,
    "name" : "Plaza del Carmen ",
    "number" : "56",
    "lines" : null
  }, {
    "address" : "Calle Santa Cruz del Marcenado nº 24",
    "geometry" : {
      "type" : "Point",
      "coordinates" : [ -3.7126299, 40.4295658 ]
    },
    "id" : 61,
    "name" : "Santa Cruz del Marcenado",
    "number" : "57",
    "lines" : null
  }, {
    "address" : "Calle Augusto Figueroa nº 33",
    "geometry" : {
      "type" : "Point",
      "coordinates" : [ -3.697895, 40.4222862 ]
    },
    "id" : 62,
    "name" : "Augusto Figueroa",
    "number" : "58",
    "lines" : null
  }, {
    "address" : "Calle Espíritu Santo nº 30",
    "geometry" : {
      "type" : "Point",
      "coordinates" : [ -3.7043418, 40.4255495 ]
    },
    "id" : 63,
    "name" : "Plaza de Juan Pujol",
    "number" : "59",
    "lines" : null
  }, {
    "address" : "Plaza de la Independencia nº 6",
    "geometry" : {
      "type" : "Point",
      "coordinates" : [ -3.688398, 40.419752 ]
    },
    "id" : 64,
    "name" : "Plaza de la Independencia",
    "number" : "60",
    "lines" : null
  }, {
    "address" : "Calle O'Donnell nº 28",
    "geometry" : {
      "type" : "Point",
      "coordinates" : [ -3.6752045, 40.4213983 ]
    },
    "id" : 65,
    "name" : "Narváez",
    "number" : "61",
    "lines" : null
  }, {
    "address" : "Calle O'Donnell nº 50",
    "geometry" : {
      "type" : "Point",
      "coordinates" : [ -3.6724968, 40.4213148 ]
    },
    "id" : 66,
    "name" : "O'Donnell",
    "number" : "62",
    "lines" : null
  }, {
    "address" : "Calle Ibiza nº 62",
    "geometry" : {
      "type" : "Point",
      "coordinates" : [ -3.6708959, 40.4179237 ]
    },
    "id" : 67,
    "name" : "Ibiza",
    "number" : "63",
    "lines" : null
  }, {
    "address" : "Calle Antonio Maura nº 15",
    "geometry" : {
      "type" : "Point",
      "coordinates" : [ -3.6894193, 40.4166834 ]
    },
    "id" : 69,
    "name" : "Antonio Maura",
    "number" : "65",
    "lines" : null
  }, {
    "address" : "Calle Almadén nº 28",
    "geometry" : {
      "type" : "Point",
      "coordinates" : [ -3.693225, 40.4108472 ]
    },
    "id" : 71,
    "name" : "Almadén",
    "number" : "67",
    "lines" : null
  }, {
    "address" : "Calle Espalter nº 1",
    "geometry" : {
      "type" : "Point",
      "coordinates" : [ -3.6912023, 40.4128372 ]
    },
    "id" : 72,
    "name" : "Espalter",
    "number" : "68",
    "lines" : null
  }, {
    "address" : "Avenida de Alfonso XII nº 54",
    "geometry" : {
      "type" : "Point",
      "coordinates" : [ -3.688822, 40.409808 ]
    },
    "id" : 73,
    "name" : "Puerta del Ángel Caído",
    "number" : "69",
    "lines" : null
  }, {
    "address" : "Calle Doce de Octubre nº 28",
    "geometry" : {
      "type" : "Point",
      "coordinates" : [ -3.6738865, 40.4159569 ]
    },
    "id" : 75,
    "name" : "Doce de Octubre",
    "number" : "71",
    "lines" : null
  }, {
    "address" : "Calle Doctor Esquerdo nº 99",
    "geometry" : {
      "type" : "Point",
      "coordinates" : [ -3.6691838, 40.4157413 ]
    },
    "id" : 76,
    "name" : "Sainz de Baranda",
    "number" : "72",
    "lines" : null
  }, {
    "address" : "Avenida de Nazaret nº 7",
    "geometry" : {
      "type" : "Point",
      "coordinates" : [ -3.6689089, 40.4114475 ]
    },
    "id" : 77,
    "name" : "Plaza de los Astros",
    "number" : "73",
    "lines" : null
  }, {
    "address" : "Avenida del Mediterráneo nº 19",
    "geometry" : {
      "type" : "Point",
      "coordinates" : [ -3.6751352, 40.4071304 ]
    },
    "id" : 80,
    "name" : "Puerta de Mariano de Cavia",
    "number" : "76",
    "lines" : null
  }, {
    "address" : "Calle Cerro de la Plata nº 2",
    "geometry" : {
      "type" : "Point",
      "coordinates" : [ -3.6744, 40.400789 ]
    },
    "id" : 82,
    "name" : "Pedro Bosch",
    "number" : "78",
    "lines" : null
  }, {
    "address" : "Paseo de la Infanta Isabel nº 3",
    "geometry" : {
      "type" : "Point",
      "coordinates" : [ -3.6902255, 40.4075685 ]
    },
    "id" : 84,
    "name" : "Atocha A",
    "number" : "80a",
    "lines" : null
  }, {
    "address" : "Paseo de la Infanta Isabel nº 3",
    "geometry" : {
      "type" : "Point",
      "coordinates" : [ -3.6901234, 40.4074902 ]
    },
    "id" : 85,
    "name" : "Atocha B",
    "number" : "80b",
    "lines" : null
  }, {
    "address" : "Cuesta de Claudio Moyano",
    "geometry" : {
      "type" : "Point",
      "coordinates" : [ -3.691987, 40.409297 ]
    },
    "id" : 86,
    "name" : "Cuesta de Moyano",
    "number" : "81",
    "lines" : null
  }, {
    "address" : "Calle Doctor Esquerdo nº 161",
    "geometry" : {
      "type" : "Point",
      "coordinates" : [ -3.6697526, 40.4084556 ]
    },
    "id" : 87,
    "name" : "Niño Jesús",
    "number" : "82",
    "lines" : null
  }, {
    "address" : "Calle Pío Baroja nº 10",
    "geometry" : {
      "type" : "Point",
      "coordinates" : [ -3.6745323, 40.4132995 ]
    },
    "id" : 88,
    "name" : "Pío Baroja",
    "number" : "83",
    "lines" : null
  }, {
    "address" : "Plaza Cibeles",
    "geometry" : {
      "type" : "Point",
      "coordinates" : [ -3.6933498, 40.4186516 ]
    },
    "id" : 91,
    "name" : "Cibeles",
    "number" : "86",
    "lines" : null
  }, {
    "address" : "Calle Ayala nº 44",
    "geometry" : {
      "type" : "Point",
      "coordinates" : [ -3.6832566, 40.427736 ]
    },
    "id" : 92,
    "name" : "Ayala",
    "number" : "87",
    "lines" : null
  }, {
    "address" : "Calle Velázquez nº 75",
    "geometry" : {
      "type" : "Point",
      "coordinates" : [ -3.6838303, 40.4313576 ]
    },
    "id" : 93,
    "name" : "Embajada de Italia",
    "number" : "88",
    "lines" : null
  }, {
    "address" : "Calle Ayala nº 102",
    "geometry" : {
      "type" : "Point",
      "coordinates" : [ -3.6752024, 40.4272582 ]
    },
    "id" : 94,
    "name" : "Conde Peñalver",
    "number" : "89",
    "lines" : null
  }, {
    "address" : "Calle Goya nº 18",
    "geometry" : {
      "type" : "Point",
      "coordinates" : [ -3.6837876, 40.4250361 ]
    },
    "id" : 95,
    "name" : "General Pardiñas",
    "number" : "90",
    "lines" : null
  }, {
    "address" : "Calle Hermosilla nº 70",
    "geometry" : {
      "type" : "Point",
      "coordinates" : [ -3.6787441, 40.426134 ]
    },
    "id" : 96,
    "name" : "Príncipe de Vergara",
    "number" : "91",
    "lines" : null
  }, {
    "address" : "Calle Claudio Coello nº 45",
    "geometry" : {
      "type" : "Point",
      "coordinates" : [ -3.6865463, 40.4262945 ]
    },
    "id" : 97,
    "name" : "Claudio Coello",
    "number" : "92",
    "lines" : null
  }, {
    "address" : "Calle Goya nº 1",
    "geometry" : {
      "type" : "Point",
      "coordinates" : [ -3.6893698, 40.4257046 ]
    },
    "id" : 98,
    "name" : "Plaza de Colón",
    "number" : "93",
    "lines" : null
  }, {
    "address" : "Paseo de Recoletos nº 20",
    "geometry" : {
      "type" : "Point",
      "coordinates" : [ -3.690756, 40.4232153 ]
    },
    "id" : 99,
    "name" : "Biblioteca Nacional",
    "number" : "94",
    "lines" : null
  }, {
    "address" : "Calle Claudio Coello nº 109",
    "geometry" : {
      "type" : "Point",
      "coordinates" : [ -3.6870548, 40.4226584 ]
    },
    "id" : 100,
    "name" : "Villanueva",
    "number" : "95",
    "lines" : null
  }, {
    "address" : "Calle Alcalá nº 111",
    "geometry" : {
      "type" : "Point",
      "coordinates" : [ -3.6821793, 40.422064 ]
    },
    "id" : 101,
    "name" : "Castelló",
    "number" : "96",
    "lines" : null
  }, {
    "address" : "Avenida de Menéndez Pelayo nº 3",
    "geometry" : {
      "type" : "Point",
      "coordinates" : [ -3.6805189, 40.4222969 ]
    },
    "id" : 102,
    "name" : "Alcalá",
    "number" : "97",
    "lines" : null
  }, {
    "address" : "Plaza de Felipe II",
    "geometry" : {
      "type" : "Point",
      "coordinates" : [ -3.6758383, 40.4239447 ]
    },
    "id" : 103,
    "name" : "Plaza de Felipe II",
    "number" : "98",
    "lines" : null
  }, {
    "address" : "Calle Alcántara nº 2",
    "geometry" : {
      "type" : "Point",
      "coordinates" : [ -3.6738714, 40.4261851 ]
    },
    "id" : 104,
    "name" : "Alcántara",
    "number" : "99",
    "lines" : null
  }, {
    "address" : "Calle Goya nº 99",
    "geometry" : {
      "type" : "Point",
      "coordinates" : [ -3.67384, 40.42478 ]
    },
    "id" : 105,
    "name" : "Palacio de Deportes",
    "number" : "100",
    "lines" : null
  }, {
    "address" : "Calle Jorge Juan nº 131",
    "geometry" : {
      "type" : "Point",
      "coordinates" : [ -3.6691524, 40.4231526 ]
    },
    "id" : 106,
    "name" : "Jorge Juan",
    "number" : "101",
    "lines" : null
  }, {
    "address" : "Calle Alcalá nº 95",
    "geometry" : {
      "type" : "Point",
      "coordinates" : [ -3.6840229, 40.4211802 ]
    },
    "id" : 107,
    "name" : "Velázquez",
    "number" : "102",
    "lines" : null
  }, {
    "address" : "Paseo de la Castellana nº 4",
    "geometry" : {
      "type" : "Point",
      "coordinates" : [ -3.68958, 40.42677 ]
    },
    "id" : 109,
    "name" : "Castellana",
    "number" : "104",
    "lines" : null
  }, {
    "address" : "Calle Serrano nº 54",
    "geometry" : {
      "type" : "Point",
      "coordinates" : [ -3.68745, 40.42699 ]
    },
    "id" : 110,
    "name" : "Serrano",
    "number" : "105",
    "lines" : null
  }, {
    "address" : "Calle Serrano nº 34",
    "geometry" : {
      "type" : "Point",
      "coordinates" : [ -3.6877227, 40.4251002 ]
    },
    "id" : 111,
    "name" : "Colón A",
    "number" : "106a",
    "lines" : null
  }, {
    "address" : "Calle Serrano nº 34",
    "geometry" : {
      "type" : "Point",
      "coordinates" : [ -3.687745, 40.424963 ]
    },
    "id" : 112,
    "name" : "Colón B",
    "number" : "106b",
    "lines" : null
  }, {
    "address" : "Calle Serrano nº 8",
    "geometry" : {
      "type" : "Point",
      "coordinates" : [ -3.6884369, 40.4215246 ]
    },
    "id" : 113,
    "name" : "Columela",
    "number" : "107",
    "lines" : null
  }, {
    "address" : "Calle Mártires Concepcionistas nº 2",
    "geometry" : {
      "type" : "Point",
      "coordinates" : [ -3.6706024, 40.4273005 ]
    },
    "id" : 114,
    "name" : "Mártires Concepcionistas",
    "number" : "108",
    "lines" : null
  }, {
    "address" : "Calle José Ortega y Gasset nº 30",
    "geometry" : {
      "type" : "Point",
      "coordinates" : [ -3.6816402, 40.4300481 ]
    },
    "id" : 115,
    "name" : "Marqués de Salamanca",
    "number" : "109",
    "lines" : null
  }, {
    "address" : "Paseo de Moret nº 2",
    "geometry" : {
      "type" : "Point",
      "coordinates" : [ -3.7200845, 40.4347895 ]
    },
    "id" : 116,
    "name" : "Moncloa",
    "number" : "110",
    "lines" : null
  }, {
    "address" : "Calle Arcipreste de Hita nº 12",
    "geometry" : {
      "type" : "Point",
      "coordinates" : [ -3.7175435, 40.4337322 ]
    },
    "id" : 117,
    "name" : "Arcipreste de Hita A",
    "number" : "111a",
    "lines" : null
  }, {
    "address" : "Calle Arcipreste de Hita nº 12",
    "geometry" : {
      "type" : "Point",
      "coordinates" : [ -3.7179687, 40.4341006 ]
    },
    "id" : 118,
    "name" : "Arcipreste de Hita B",
    "number" : "111b",
    "lines" : null
  }, {
    "address" : "Paseo de Moret nº 11",
    "geometry" : {
      "type" : "Point",
      "coordinates" : [ -3.7246532, 40.4325991 ]
    },
    "id" : 119,
    "name" : "Paseo de Moret",
    "number" : "112",
    "lines" : null
  }, {
    "address" : "Calle Quintana nº 11",
    "geometry" : {
      "type" : "Point",
      "coordinates" : [ -3.7174158, 40.4277456 ]
    },
    "id" : 121,
    "name" : "Quintana",
    "number" : "114",
    "lines" : null
  }, {
    "address" : "Calle Evaristo San Miguel nº 2",
    "geometry" : {
      "type" : "Point",
      "coordinates" : [ -3.7170448, 40.4253944 ]
    },
    "id" : 122,
    "name" : "Ferraz",
    "number" : "115",
    "lines" : null
  }, {
    "address" : "Calle Princesa nº 5",
    "geometry" : {
      "type" : "Point",
      "coordinates" : [ -3.713053, 40.423668 ]
    },
    "id" : 123,
    "name" : "Plaza de España A",
    "number" : "116a",
    "lines" : null
  }, {
    "address" : "Calle Princesa nº 5",
    "geometry" : {
      "type" : "Point",
      "coordinates" : [ -3.710537, 40.423681 ]
    },
    "id" : 124,
    "name" : "Plaza de España B",
    "number" : "116b",
    "lines" : null
  }, {
    "address" : "Calle Altamirano nº 24",
    "geometry" : {
      "type" : "Point",
      "coordinates" : [ -3.7188898, 40.4309797 ]
    },
    "id" : 125,
    "name" : "Altamirano",
    "number" : "117",
    "lines" : null
  }, {
    "address" : "Calle Juan Martín el Empecinado nº 16",
    "geometry" : {
      "type" : "Point",
      "coordinates" : [ -3.6882407, 40.400781 ]
    },
    "id" : 126,
    "name" : "Juan Martín",
    "number" : "118",
    "lines" : null
  }, {
    "address" : "Calle Méndez Álvaro nº 11",
    "geometry" : {
      "type" : "Point",
      "coordinates" : [ -3.6863218, 40.4013216 ]
    },
    "id" : 127,
    "name" : "Méndez Álvaro",
    "number" : "119",
    "lines" : null
  }, {
    "address" : "Calle Santa Engracia nº 14",
    "geometry" : {
      "type" : "Point",
      "coordinates" : [ -3.6967169, 40.4291992 ]
    },
    "id" : 130,
    "name" : "Santa Engracia 14",
    "number" : "122",
    "lines" : null
  }, {
    "address" : "Calle Guzmán el Bueno nº 1",
    "geometry" : {
      "type" : "Point",
      "coordinates" : [ -3.7133412, 40.4306458 ]
    },
    "id" : 131,
    "name" : "Guzmán el Bueno",
    "number" : "123",
    "lines" : null
  }, {
    "address" : "Calle Manuel Silvela nº 20",
    "geometry" : {
      "type" : "Point",
      "coordinates" : [ -3.6993465, 40.4309524 ]
    },
    "id" : 169,
    "name" : "Manuel Silvela",
    "number" : "124",
    "lines" : null
  }, {
    "address" : "Calle Fernández de la Hoz nº 29",
    "geometry" : {
      "type" : "Point",
      "coordinates" : [ -3.6948626, 40.435285 ]
    },
    "id" : 164,
    "name" : "General Martínez Campos ",
    "number" : "125",
    "lines" : null
  }, {
    "address" : "Calle del General Álvarez de Castro nº 1",
    "geometry" : {
      "type" : "Point",
      "coordinates" : [ -3.7015686, 40.4344731 ]
    },
    "id" : 163,
    "name" : "General Álvarez de Castro",
    "number" : "126",
    "lines" : null
  }, {
    "address" : "Calle Fernando el Católico nº 19",
    "geometry" : {
      "type" : "Point",
      "coordinates" : [ -3.708439, 40.4338516 ]
    },
    "id" : 168,
    "name" : "Fernando el Católico",
    "number" : "127",
    "lines" : null
  }, {
    "address" : "Calle Cea Bermúdez nº 59",
    "geometry" : {
      "type" : "Point",
      "coordinates" : [ -3.7154329, 40.438994 ]
    },
    "id" : 160,
    "name" : "Cea Bermúdez",
    "number" : "128",
    "lines" : null
  }, {
    "address" : "Calle José Abascal nº 33",
    "geometry" : {
      "type" : "Point",
      "coordinates" : [ -3.6982353, 40.4383865 ]
    },
    "id" : 161,
    "name" : "José Abascal",
    "number" : "129",
    "lines" : null
  }, {
    "address" : "Calle Santa Engracia nº 127",
    "geometry" : {
      "type" : "Point",
      "coordinates" : [ -3.70164, 40.44156 ]
    },
    "id" : 157,
    "name" : "Santa Engracia 127",
    "number" : "130",
    "lines" : null
  }, {
    "address" : "Calle Bravo Murillo nº 44",
    "geometry" : {
      "type" : "Point",
      "coordinates" : [ -3.7040344, 40.4418402 ]
    },
    "id" : 156,
    "name" : "Bravo Murillo 44",
    "number" : "131",
    "lines" : null
  }, {
    "address" : "Calle Santa Engracia nº 168",
    "geometry" : {
      "type" : "Point",
      "coordinates" : [ -3.7036675, 40.4463667 ]
    },
    "id" : 149,
    "name" : "Glorieta de los Cuatro Caminos",
    "number" : "132",
    "lines" : null
  }, {
    "address" : "Calle Raimundo Fernández Villaverde nº 33",
    "geometry" : {
      "type" : "Point",
      "coordinates" : [ -3.7001669, 40.447125 ]
    },
    "id" : 150,
    "name" : "Raimundo Fernández",
    "number" : "133",
    "lines" : null
  }, {
    "address" : "Calle María de Guzmán nº 58",
    "geometry" : {
      "type" : "Point",
      "coordinates" : [ -3.6956047, 40.4440297 ]
    },
    "id" : 153,
    "name" : "Agustín de Betancourt",
    "number" : "134",
    "lines" : null
  }, {
    "address" : "Plaza de San Juan de la Cruz nº 11",
    "geometry" : {
      "type" : "Point",
      "coordinates" : [ -3.6927821, 40.4415974 ]
    },
    "id" : 158,
    "name" : "Plaza de San Juan de la Cruz",
    "number" : "135",
    "lines" : null
  }, {
    "address" : "Paseo de la Castellana nº 106",
    "geometry" : {
      "type" : "Point",
      "coordinates" : [ -3.690861, 40.4453307 ]
    },
    "id" : 151,
    "name" : "Castellana 106",
    "number" : "136",
    "lines" : null
  }, {
    "address" : "Plaza de la República Argentina nº 6",
    "geometry" : {
      "type" : "Point",
      "coordinates" : [ -3.6853312, 40.445411 ]
    },
    "id" : 152,
    "name" : "Plaza de la República Argentina",
    "number" : "137",
    "lines" : null
  }, {
    "address" : "Paseo de la Castellana esquina calle Raimundo Fernández Villaverde",
    "geometry" : {
      "type" : "Point",
      "coordinates" : [ -3.6917932, 40.4457414 ]
    },
    "id" : 154,
    "name" : "Paseo de la Castellana con Raimundo Fernández",
    "number" : "138",
    "lines" : null
  }, {
    "address" : "Calle José Gutiérrez Abascal nº 2",
    "geometry" : {
      "type" : "Point",
      "coordinates" : [ -3.6907784, 40.4396792 ]
    },
    "id" : 159,
    "name" : "José Gutiérrez Abascal ",
    "number" : "139",
    "lines" : null
  }, {
    "address" : "Calle Velázquez nº 130",
    "geometry" : {
      "type" : "Point",
      "coordinates" : [ -3.6831578, 40.4385127 ]
    },
    "id" : 162,
    "name" : "Velázquez 130",
    "number" : "140",
    "lines" : null
  }, {
    "address" : "Paseo de la Castellana nº 43",
    "geometry" : {
      "type" : "Point",
      "coordinates" : [ -3.6892368, 40.4355143 ]
    },
    "id" : 165,
    "name" : "Paseo de la Castellana - Glorieta de Emilio Castelar",
    "number" : "141",
    "lines" : null
  }, {
    "address" : "Paseo de la Castellana nº 42",
    "geometry" : {
      "type" : "Point",
      "coordinates" : [ -3.6879154, 40.4334087 ]
    },
    "id" : 167,
    "name" : "Castellana 42",
    "number" : "142",
    "lines" : null
  }, {
    "address" : "Calle Diego de León nº 52",
    "geometry" : {
      "type" : "Point",
      "coordinates" : [ -3.678492, 40.4345973 ]
    },
    "id" : 166,
    "name" : "Diego de León 52",
    "number" : "143",
    "lines" : null
  }, {
    "address" : "Calle Ortega y Gasset nº 87",
    "geometry" : {
      "type" : "Point",
      "coordinates" : [ -3.6712823, 40.429887 ]
    },
    "id" : 171,
    "name" : "Ortega y Gasset 87",
    "number" : "145",
    "lines" : null
  }, {
    "address" : "Calle María Francisca nº 1",
    "geometry" : {
      "type" : "Point",
      "coordinates" : [ -3.6787169, 40.4442258 ]
    },
    "id" : 155,
    "name" : "María Francisca 1",
    "number" : "146",
    "lines" : null
  }, {
    "address" : "Avenida del Doctor Arce nº 45",
    "geometry" : {
      "type" : "Point",
      "coordinates" : [ -3.6797296, 40.4483269 ]
    },
    "id" : 148,
    "name" : "Doctor Arce 45",
    "number" : "147",
    "lines" : null
  }, {
    "address" : "Calle Serrano nº 210",
    "geometry" : {
      "type" : "Point",
      "coordinates" : [ -3.6817962, 40.4510188 ]
    },
    "id" : 144,
    "name" : "Serrano 210",
    "number" : "148",
    "lines" : null
  }, {
    "address" : "Paseo de la Habana nº 42",
    "geometry" : {
      "type" : "Point",
      "coordinates" : [ -3.6881689, 40.4498613 ]
    },
    "id" : 146,
    "name" : "Paseo de la Habana 42",
    "number" : "149",
    "lines" : null
  }, {
    "address" : "Calle Orense nº 12",
    "geometry" : {
      "type" : "Point",
      "coordinates" : [ -3.6952943, 40.4489101 ]
    },
    "id" : 145,
    "name" : "Orense 12",
    "number" : "151",
    "lines" : null
  }, {
    "address" : "Calle Orense nº 36",
    "geometry" : {
      "type" : "Point",
      "coordinates" : [ -3.6946218, 40.4548456 ]
    },
    "id" : 141,
    "name" : "Orense 36",
    "number" : "154",
    "lines" : null
  }, {
    "address" : "Calle San Germán nº 57",
    "geometry" : {
      "type" : "Point",
      "coordinates" : [ -3.7009675, 40.4572824 ]
    },
    "id" : 139,
    "name" : "San Germán 57",
    "number" : "155",
    "lines" : null
  }, {
    "address" : "Calle Sor Ángela de la Cruz nº 2",
    "geometry" : {
      "type" : "Point",
      "coordinates" : [ -3.691533, 40.4592351 ]
    },
    "id" : 140,
    "name" : "Sor Ángela de la Cruz",
    "number" : "156",
    "lines" : null
  }, {
    "address" : "Avenida de Alberto Alcocer nº 22",
    "geometry" : {
      "type" : "Point",
      "coordinates" : [ -3.684715, 40.4585318 ]
    },
    "id" : 138,
    "name" : "Alberto Alcocer",
    "number" : "158",
    "lines" : null
  }, {
    "address" : "Paseo de la Habana nº 63",
    "geometry" : {
      "type" : "Point",
      "coordinates" : [ -3.6835926, 40.4543852 ]
    },
    "id" : 173,
    "name" : "Paseo de la Habana 63",
    "number" : "159",
    "lines" : null
  }, {
    "address" : "Calle Colombia nº 7",
    "geometry" : {
      "type" : "Point",
      "coordinates" : [ -3.6763439, 40.4572466 ]
    },
    "id" : 172,
    "name" : "Colombia",
    "number" : "160",
    "lines" : null
  }, {
    "address" : "Paseo de la Florida nº 8",
    "geometry" : {
      "type" : "Point",
      "coordinates" : [ -3.7224983, 40.4219665 ]
    },
    "id" : 132,
    "name" : "Paseo de la Florida",
    "number" : "161",
    "lines" : null
  }, {
    "address" : "Paseo de los Olmos nº 28",
    "geometry" : {
      "type" : "Point",
      "coordinates" : [ -3.7108108, 40.4034076 ]
    },
    "id" : 133,
    "name" : "Metro Pirámides",
    "number" : "162",
    "lines" : null
  }, {
    "address" : "Paseo de la Esperanza nº 2",
    "geometry" : {
      "type" : "Point",
      "coordinates" : [ -3.7064516, 40.4035988 ]
    },
    "id" : 134,
    "name" : "Paseo de la Esperanza",
    "number" : "163",
    "lines" : null
  }, {
    "address" : "Paseo Santa María de la Cabeza nº 29",
    "geometry" : {
      "type" : "Point",
      "coordinates" : [ -3.6959166, 40.4044722 ]
    },
    "id" : 176,
    "name" : "Batalla del Salado",
    "number" : "168",
    "lines" : null
  }, {
    "address" : "Calle Toledo nº 181",
    "geometry" : {
      "type" : "Point",
      "coordinates" : [ -3.7138055, 40.4016111 ]
    },
    "id" : 177,
    "name" : "Pirámides",
    "number" : "169",
    "lines" : null
  }, {
    "address" : "Paseo de la Esperanza nº 21",
    "geometry" : {
      "type" : "Point",
      "coordinates" : [ -3.7043611, 40.401 ]
    },
    "id" : 178,
    "name" : "Paseo de la Esperanza",
    "number" : "170",
    "lines" : null
  }, {
    "address" : "Calle Embajadores nº 101",
    "geometry" : {
      "type" : "Point",
      "coordinates" : [ -3.6983888, 40.39975 ]
    },
    "id" : 179,
    "name" : "Embajadores-Cáceres",
    "number" : "171",
    "lines" : null
  }, {
    "address" : "Calle Bustamante nº 1",
    "geometry" : {
      "type" : "Point",
      "coordinates" : [ -3.6935833, 40.4008888 ]
    },
    "id" : 180,
    "name" : "Delicias",
    "number" : "172",
    "lines" : null
  }, {
    "address" : "Paseo de la Esperanza nº 59",
    "geometry" : {
      "type" : "Point",
      "coordinates" : [ -3.7023918, 40.3981798 ]
    },
    "id" : 181,
    "name" : "Puente Praga",
    "number" : "173",
    "lines" : null
  }, {
    "address" : "Paseo de Yeserías nº 45",
    "geometry" : {
      "type" : "Point",
      "coordinates" : [ -3.7065277, 40.3974444 ]
    },
    "id" : 182,
    "name" : "Madrid Río-Yeserías",
    "number" : "174",
    "lines" : null
  }, {
    "address" : "Calle Jaime el Conquistador nº 30",
    "geometry" : {
      "type" : "Point",
      "coordinates" : [ -3.6983055, 40.3962222 ]
    },
    "id" : 183,
    "name" : "Jaime el Conquistador",
    "number" : "175",
    "lines" : null
  }, {
    "address" : "Calle Alicante nº 3",
    "geometry" : {
      "type" : "Point",
      "coordinates" : [ -3.6937222, 40.39425 ]
    },
    "id" : 184,
    "name" : "Beata",
    "number" : "176",
    "lines" : null
  }, {
    "address" : "Calle Bolívar nº 3",
    "geometry" : {
      "type" : "Point",
      "coordinates" : [ -3.6941944, 40.3914722 ]
    },
    "id" : 185,
    "name" : "Legazpi",
    "number" : "177",
    "lines" : null
  }, {
    "address" : "Calle León Gil de Palacio nº 3",
    "geometry" : {
      "type" : "Point",
      "coordinates" : [ -3.6788343, 40.4029202 ]
    },
    "id" : 186,
    "name" : "Junta Municipal Retiro",
    "number" : "178",
    "lines" : null
  }, {
    "address" : "Avenida de la Albufera nº 6",
    "geometry" : {
      "type" : "Point",
      "coordinates" : [ -3.66925, 40.3979722 ]
    },
    "id" : 187,
    "name" : "Puente de Vallecas",
    "number" : "179",
    "lines" : null
  }, {
    "address" : "Calle Retama nº 5",
    "geometry" : {
      "type" : "Point",
      "coordinates" : [ -3.6758888, 40.3941388 ]
    },
    "id" : 188,
    "name" : "Méndez Álvaro",
    "number" : "180",
    "lines" : null
  }, {
    "address" : "Calle Alcalde Sáinz de Baranda frente al nº 107",
    "geometry" : {
      "type" : "Point",
      "coordinates" : [ -3.6657777, 40.4186666 ]
    },
    "id" : 190,
    "name" : "Parque Roma",
    "number" : "182",
    "lines" : null
  }, {
    "address" : "Calle Hermosilla nº 135",
    "geometry" : {
      "type" : "Point",
      "coordinates" : [ -3.669339, 40.425635 ]
    },
    "id" : 191,
    "name" : "Doctor Esquerdo-Hermosilla",
    "number" : "183",
    "lines" : null
  }, {
    "address" : "Paseo Marqués de Zafra nº 24",
    "geometry" : {
      "type" : "Point",
      "coordinates" : [ -3.6653055, 40.426 ]
    },
    "id" : 192,
    "name" : "Marqués de Zafra",
    "number" : "184",
    "lines" : null
  }, {
    "address" : "Calle Sancho Dávila esquina Paseo Marqués de Zafra",
    "geometry" : {
      "type" : "Point",
      "coordinates" : [ -3.6615277, 40.4250833 ]
    },
    "id" : 193,
    "name" : "Quinta Fuente del Berro",
    "number" : "185",
    "lines" : null
  }, {
    "address" : "Calle Alejandro González nº 1",
    "geometry" : {
      "type" : "Point",
      "coordinates" : [ -3.6638888, 40.4301666 ]
    },
    "id" : 195,
    "name" : "Alcalá-Ventas",
    "number" : "187",
    "lines" : null
  }, {
    "address" : "Avenida de Daroca nº 2",
    "geometry" : {
      "type" : "Point",
      "coordinates" : [ -3.6590555, 40.4311944 ]
    },
    "id" : 196,
    "name" : "Puente de Ventas",
    "number" : "188",
    "lines" : null
  }, {
    "address" : "Calle Virgen de la Alegría nº 18",
    "geometry" : {
      "type" : "Point",
      "coordinates" : [ -3.6554918, 40.4351256 ]
    },
    "id" : 197,
    "name" : "Avenida Donostiarra",
    "number" : "189",
    "lines" : null
  }, {
    "address" : "Calle Velázquez nº 91",
    "geometry" : {
      "type" : "Point",
      "coordinates" : [ -3.6835833, 40.4343333 ]
    },
    "id" : 198,
    "name" : "Velázquez-Diego de León",
    "number" : "190",
    "lines" : null
  }, {
    "address" : "Calle Alonso Heredia nº 1",
    "geometry" : {
      "type" : "Point",
      "coordinates" : [ -3.674, 40.4346388 ]
    },
    "id" : 199,
    "name" : "Diego de león",
    "number" : "191",
    "lines" : null
  }, {
    "address" : "Avenida de los Toreros nº 3",
    "geometry" : {
      "type" : "Point",
      "coordinates" : [ -3.6714166, 40.4318611 ]
    },
    "id" : 200,
    "name" : "Avenida de los Toreros",
    "number" : "192",
    "lines" : null
  }, {
    "address" : "Avenida de los Toreros nº 49",
    "geometry" : {
      "type" : "Point",
      "coordinates" : [ -3.6655555, 40.4324722 ]
    },
    "id" : 201,
    "name" : "Ventas",
    "number" : "193",
    "lines" : null
  }, {
    "address" : "Calle Francisco Silvela nº 86",
    "geometry" : {
      "type" : "Point",
      "coordinates" : [ -3.6772222, 40.43725 ]
    },
    "id" : 202,
    "name" : "Avenida de América 2",
    "number" : "194",
    "lines" : null
  }, {
    "address" : "Calle Padre Indalecio Hernández nº 1",
    "geometry" : {
      "type" : "Point",
      "coordinates" : [ -3.6754444, 40.4392222 ]
    },
    "id" : 203,
    "name" : "Avenida de América 1",
    "number" : "195",
    "lines" : null
  }, {
    "address" : "Calle Suero de Quiñones nº 2",
    "geometry" : {
      "type" : "Point",
      "coordinates" : [ -3.6751388, 40.4441388 ]
    },
    "id" : 204,
    "name" : "Prosperidad",
    "number" : "196",
    "lines" : null
  }, {
    "address" : "Avenida de Concha Espina nº 34",
    "geometry" : {
      "type" : "Point",
      "coordinates" : [ -3.6780555, 40.4515833 ]
    },
    "id" : 205,
    "name" : "Parque Berlín",
    "number" : "197",
    "lines" : null
  }, {
    "address" : "Glorieta Rubén Darío 2",
    "geometry" : {
      "type" : "Point",
      "coordinates" : [ -3.6915555, 40.4331111 ]
    },
    "id" : 206,
    "name" : "Rubén Darío",
    "number" : "198",
    "lines" : null
  }, {
    "address" : "Calle Fernando el Católico nº 61",
    "geometry" : {
      "type" : "Point",
      "coordinates" : [ -3.7149166, 40.4343611 ]
    },
    "id" : 207,
    "name" : "Fernando el Católico",
    "number" : "199",
    "lines" : null
  }, {
    "address" : "Glorieta de Quevedo nº 5",
    "geometry" : {
      "type" : "Point",
      "coordinates" : [ -3.7046666, 40.4336944 ]
    },
    "id" : 208,
    "name" : "Quevedo",
    "number" : "200",
    "lines" : null
  }, {
    "address" : "Calle José Abascal frente al nº 2",
    "geometry" : {
      "type" : "Point",
      "coordinates" : [ -3.7038333, 40.4386944 ]
    },
    "id" : 209,
    "name" : "Canal",
    "number" : "201",
    "lines" : null
  }, {
    "address" : "Calle Santander esquina con Avenida de Filipinas",
    "geometry" : {
      "type" : "Point",
      "coordinates" : [ -3.7080833, 40.4411388 ]
    },
    "id" : 210,
    "name" : "Parque Santander",
    "number" : "202",
    "lines" : null
  }, {
    "address" : "Calle General Ampudia nº 2",
    "geometry" : {
      "type" : "Point",
      "coordinates" : [ -3.7144722, 40.44175 ]
    },
    "id" : 211,
    "name" : "San Francisco de Sales",
    "number" : "203",
    "lines" : null
  }, {
    "address" : "Calle Doctor Santero nº 1",
    "geometry" : {
      "type" : "Point",
      "coordinates" : [ -3.7041666, 40.4476666 ]
    },
    "id" : 212,
    "name" : "Cuatro Caminos 2",
    "number" : "204",
    "lines" : null
  }, {
    "address" : "Calle Navarra nº 1",
    "geometry" : {
      "type" : "Point",
      "coordinates" : [ -3.7032777, 40.4535 ]
    },
    "id" : 213,
    "name" : "Estrecho",
    "number" : "205",
    "lines" : null
  }, {
    "address" : "Calle Marqués de Viana nº 3",
    "geometry" : {
      "type" : "Point",
      "coordinates" : [ -3.6989925, 40.4607502 ]
    },
    "id" : 214,
    "name" : "Metro Tetuán",
    "number" : "206",
    "lines" : null
  }, {
    "address" : "Calle Azucenas nº 1",
    "geometry" : {
      "type" : "Point",
      "coordinates" : [ -3.6973333, 40.4630277 ]
    },
    "id" : 215,
    "name" : "Remonta",
    "number" : "207",
    "lines" : null
  }, {
    "address" : "Calle Tres Cruces nº 7",
    "geometry" : {
      "type" : "Point",
      "coordinates" : [ -3.7026735, 40.419674 ]
    },
    "id" : 218,
    "name" : "Tres Cruces",
    "number" : "210",
    "lines" : null
  }, {
    "address" : "Calle Desengaño nº 1",
    "geometry" : {
      "type" : "Point",
      "coordinates" : [ -3.70239, 40.42059 ]
    },
    "id" : 219,
    "name" : "Desengaño",
    "number" : "211",
    "lines" : null
  }, {
    "address" : "Glorieta Marqués de Vadillo nº 9",
    "geometry" : {
      "type" : "Point",
      "coordinates" : [ -3.716591, 40.398247 ]
    },
    "id" : 220,
    "name" : "Marqués de Vadillo",
    "number" : "212",
    "lines" : null
  }, {
    "address" : "Calle Antonio López nº 129",
    "geometry" : {
      "type" : "Point",
      "coordinates" : [ -3.70017, 40.38895 ]
    },
    "id" : 221,
    "name" : "Glorieta de Cádiz",
    "number" : "213",
    "lines" : null
  }, {
    "address" : "Calle Condesa de Venadito nº 2",
    "geometry" : {
      "type" : "Point",
      "coordinates" : [ -3.65741, 40.44315 ]
    },
    "id" : 222,
    "name" : "Condesa de Venadito",
    "number" : "214",
    "lines" : null
  }, {
    "address" : "Calle Gutierre de Cetina nº 77",
    "geometry" : {
      "type" : "Point",
      "coordinates" : [ -3.640994, 40.429706 ]
    },
    "id" : 223,
    "name" : "Gutierre de Cetina",
    "number" : "215",
    "lines" : null
  }, {
    "address" : "Plaza Puerta del Ángel nº 4",
    "geometry" : {
      "type" : "Point",
      "coordinates" : [ -3.72897, 40.4141 ]
    },
    "id" : 224,
    "name" : "Puerta del Ángel",
    "number" : "216",
    "lines" : null
  }, {
    "address" : "Calle Pedro Rico nº 4",
    "geometry" : {
      "type" : "Point",
      "coordinates" : [ -3.688463, 40.481086 ]
    },
    "id" : 225,
    "name" : "Pedro Rico",
    "number" : "217",
    "lines" : null
  }, {
    "address" : "Calle Camino de los Vinateros nº 28",
    "geometry" : {
      "type" : "Point",
      "coordinates" : [ -3.65779, 40.41053 ]
    },
    "id" : 226,
    "name" : "Camino Vinateros",
    "number" : "218",
    "lines" : null
  }, {
    "address" : "Calle Camino de los Vinateros nº 108",
    "geometry" : {
      "type" : "Point",
      "coordinates" : [ -3.646697, 40.408264 ]
    },
    "id" : 227,
    "name" : "Marroquina",
    "number" : "219",
    "lines" : null
  }, {
    "address" : "Calle Arroyo de las Pilillas nº 6",
    "geometry" : {
      "type" : "Point",
      "coordinates" : [ -3.65122, 40.40617 ]
    },
    "id" : 228,
    "name" : "Plaza del Encuentro",
    "number" : "220",
    "lines" : null
  }, {
    "address" : "Calle Hacienda de Pavones nº 342",
    "geometry" : {
      "type" : "Point",
      "coordinates" : [ -3.634587, 40.400368 ]
    },
    "id" : 229,
    "name" : "Pavones",
    "number" : "221",
    "lines" : null
  }, {
    "address" : "Calle Eugenio Caxes frente al nº 12",
    "geometry" : {
      "type" : "Point",
      "coordinates" : [ -3.7026789, 40.3917871 ]
    },
    "id" : 230,
    "name" : "Antonio López",
    "number" : "222",
    "lines" : null
  }, {
    "address" : "Paseo de la Ermita del Santo nº 48",
    "geometry" : {
      "type" : "Point",
      "coordinates" : [ -3.7244893989507686, 40.406837862773465 ]
    },
    "id" : 231,
    "name" : "Ermita Santo",
    "number" : "223",
    "lines" : null
  }, {
    "address" : "Calle Caramuel nº 51",
    "geometry" : {
      "type" : "Point",
      "coordinates" : [ -3.728533714316331, 40.40913630273305 ]
    },
    "id" : 232,
    "name" : "Caramuel",
    "number" : "224",
    "lines" : null
  }, {
    "address" : "Calle Sierra Toledana nº 33",
    "geometry" : {
      "type" : "Point",
      "coordinates" : [ -3.660188083470652, 40.40248333540473 ]
    },
    "id" : 233,
    "name" : "Doctor Lozano",
    "number" : "225",
    "lines" : null
  }, {
    "address" : "Camino de Valderribas nº 94",
    "geometry" : {
      "type" : "Point",
      "coordinates" : [ -3.6607768678037744, 40.39901531507069 ]
    },
    "id" : 234,
    "name" : "Sierra Toledana",
    "number" : "226",
    "lines" : null
  }, {
    "address" : "Calle Arroyo del Olivar nº 6",
    "geometry" : {
      "type" : "Point",
      "coordinates" : [ -3.6659362429356372, 40.39382977920336 ]
    },
    "id" : 236,
    "name" : "Concordia",
    "number" : "227",
    "lines" : null
  }, {
    "address" : "Calle San Delfín nº 9",
    "geometry" : {
      "type" : "Point",
      "coordinates" : [ -3.7080429728445563, 40.39440607959559 ]
    },
    "id" : 235,
    "name" : "San Delfín",
    "number" : "228",
    "lines" : null
  }, {
    "address" : "Calle Jose del Hierro nº 5",
    "geometry" : {
      "type" : "Point",
      "coordinates" : [ -3.64835857929032, 40.43715089959262 ]
    },
    "id" : 237,
    "name" : "C.D. Concepción",
    "number" : "229",
    "lines" : null
  }, {
    "address" : "Calle Carlota O'Neill nº 32",
    "geometry" : {
      "type" : "Point",
      "coordinates" : [ -3.648958444298144, 40.44370542379883 ]
    },
    "id" : 238,
    "name" : "Carlota O’Neill",
    "number" : "230",
    "lines" : null
  }, {
    "address" : "Calle Derechos Humanos nº 12",
    "geometry" : {
      "type" : "Point",
      "coordinates" : [ -3.6557656204708775, 40.43965673033275 ]
    },
    "id" : 239,
    "name" : "Derechos Humanos",
    "number" : "231",
    "lines" : null
  }, {
    "address" : "Calle José María de Pereda nº 1",
    "geometry" : {
      "type" : "Point",
      "coordinates" : [ -3.6485306152875148, 40.43272086245887 ]
    },
    "id" : 240,
    "name" : "José María Pereda",
    "number" : "232",
    "lines" : null
  }, {
    "address" : "Avenida Marqués de Corbera nº 12",
    "geometry" : {
      "type" : "Point",
      "coordinates" : [ -3.6555552857442697, 40.422962108947424 ]
    },
    "id" : 241,
    "name" : "Marqués de Corbera 12",
    "number" : "233",
    "lines" : null
  }, {
    "address" : "Avenida Marqués de Corbera nº 52",
    "geometry" : {
      "type" : "Point",
      "coordinates" : [ -3.651034981803642, 40.426207143200884 ]
    },
    "id" : 242,
    "name" : "Marqués de Corbera 52",
    "number" : "234",
    "lines" : null
  }, {
    "address" : "Calle Sodio nº 1B",
    "geometry" : {
      "type" : "Point",
      "coordinates" : [ -3.6903589643353483, 40.389258643579105 ]
    },
    "id" : 243,
    "name" : "Embajadores 191",
    "number" : "235",
    "lines" : null
  }, {
    "address" : "Paseo Imperial nº 20",
    "geometry" : {
      "type" : "Point",
      "coordinates" : [ -3.7172213778842007, 40.40765396169372 ]
    },
    "id" : 244,
    "name" : "Paseo Imperial",
    "number" : "236",
    "lines" : null
  }, {
    "address" : "Calle San Germán nº 5",
    "geometry" : {
      "type" : "Point",
      "coordinates" : [ -3.6929376751795306, 40.45619382579544 ]
    },
    "id" : 246,
    "name" : "San Germán 5",
    "number" : "238",
    "lines" : null
  }, {
    "address" : "Calle Francos Rodríguez nº 62",
    "geometry" : {
      "type" : "Point",
      "coordinates" : [ -3.708002730875242, 40.45673408797698 ]
    },
    "id" : 247,
    "name" : "Francos Rodríguez",
    "number" : "239",
    "lines" : null
  }, {
    "address" : "Avenida de Brasilia frente al nº 9",
    "geometry" : {
      "type" : "Point",
      "coordinates" : [ -3.66096, 40.43666 ]
    },
    "id" : 248,
    "name" : "Avenida Brasilia",
    "number" : "240",
    "lines" : null
  }, {
    "address" : "Avenida de Camilo José Cela nº 23",
    "geometry" : {
      "type" : "Point",
      "coordinates" : [ -3.66779, 40.4378 ]
    },
    "id" : 249,
    "name" : "Camilo José Cela",
    "number" : "241",
    "lines" : null
  }, {
    "address" : "Avenida Bruselas nº 56",
    "geometry" : {
      "type" : "Point",
      "coordinates" : [ -3.66301, 40.43865 ]
    },
    "id" : 250,
    "name" : "Avenida Bruselas",
    "number" : "242",
    "lines" : null
  }, {
    "address" : "Calle Cartagena nº 34",
    "geometry" : {
      "type" : "Point",
      "coordinates" : [ -3.67012, 40.43503 ]
    },
    "id" : 251,
    "name" : "Cartagena",
    "number" : "243",
    "lines" : null
  }, {
    "address" : "Calle Isaac Peral nº 44",
    "geometry" : {
      "type" : "Point",
      "coordinates" : [ -3.71757, 40.44003 ]
    },
    "id" : 252,
    "name" : "Hospital Clínico",
    "number" : "244",
    "lines" : null
  }, {
    "address" : "Calle Galileo nº 63",
    "geometry" : {
      "type" : "Point",
      "coordinates" : [ -3.71019, 40.4364 ]
    },
    "id" : 253,
    "name" : "Galileo",
    "number" : "245",
    "lines" : null
  }, {
    "address" : "Calle Santa Engracia nº 87",
    "geometry" : {
      "type" : "Point",
      "coordinates" : [ -3.69928, 40.43604 ]
    },
    "id" : 254,
    "name" : "Santa Engracia 87",
    "number" : "246",
    "lines" : null
  }, {
    "address" : "Calle Zurbano nº 90",
    "geometry" : {
      "type" : "Point",
      "coordinates" : [ -3.69281, 40.43837 ]
    },
    "id" : 270,
    "name" : "Zurbano",
    "number" : "247",
    "lines" : null
  }, {
    "address" : "Calle Sinesio Delgado nº 2",
    "geometry" : {
      "type" : "Point",
      "coordinates" : [ -3.68797, 40.47435 ]
    },
    "id" : 256,
    "name" : "Torre Cepsa",
    "number" : "248",
    "lines" : null
  }, {
    "address" : "Paseo de la Castellana nº 298",
    "geometry" : {
      "type" : "Point",
      "coordinates" : [ -3.68532, 40.47938 ]
    },
    "id" : 257,
    "name" : "Manuel Caldeiro",
    "number" : "249",
    "lines" : null
  }, {
    "address" : "Calle Serrano nº 113B",
    "geometry" : {
      "type" : "Point",
      "coordinates" : [ -3.68609, 40.44106 ]
    },
    "id" : 258,
    "name" : "Serrano 113",
    "number" : "250",
    "lines" : null
  }, {
    "address" : "Calle Santa Hortensia nº 31",
    "geometry" : {
      "type" : "Point",
      "coordinates" : [ -3.66683, 40.44421 ]
    },
    "id" : 259,
    "name" : "Corazón de María",
    "number" : "251",
    "lines" : null
  }, {
    "address" : "Calle Rodríguez Jaén nº 40",
    "geometry" : {
      "type" : "Point",
      "coordinates" : [ -3.68391, 40.4716 ]
    },
    "id" : 260,
    "name" : "Chamartín",
    "number" : "252",
    "lines" : null
  }, {
    "address" : "Calle Doctor Fleming nº 7",
    "geometry" : {
      "type" : "Point",
      "coordinates" : [ -3.68844, 40.45546 ]
    },
    "id" : 261,
    "name" : "Doctor Fleming",
    "number" : "253",
    "lines" : null
  }, {
    "address" : "Avenida Pío XII nº 3",
    "geometry" : {
      "type" : "Point",
      "coordinates" : [ -3.67656, 40.461 ]
    },
    "id" : 262,
    "name" : "Pío XII",
    "number" : "254",
    "lines" : null
  }, {
    "address" : "Calle General López Pozas nº 2",
    "geometry" : {
      "type" : "Point",
      "coordinates" : [ -3.68514, 40.46361 ]
    },
    "id" : 263,
    "name" : "López Pozas",
    "number" : "255",
    "lines" : null
  }, {
    "address" : "Calle Beatriz de Bobadilla frente al nº 2",
    "geometry" : {
      "type" : "Point",
      "coordinates" : [ -3.71383, 40.44635 ]
    },
    "id" : 264,
    "name" : "Reina Victoria",
    "number" : "256",
    "lines" : null
  }, {
    "address" : "Avenida Juan de Herrera frente a la calle Paul Guinard",
    "geometry" : {
      "type" : "Point",
      "coordinates" : [ -3.72997, 40.43896 ]
    },
    "id" : 265,
    "name" : "INEF",
    "number" : "257",
    "lines" : null
  }, {
    "address" : "Avenida de la Complutense (Metro Ciudad Universitaria)",
    "geometry" : {
      "type" : "Point",
      "coordinates" : [ -3.72699, 40.44375 ]
    },
    "id" : 266,
    "name" : "Ciudad Universitaria 1",
    "number" : "258",
    "lines" : null
  }, {
    "address" : "Avenida de la Complutense (Metro Ciudad Universitaria)",
    "geometry" : {
      "type" : "Point",
      "coordinates" : [ -3.72693, 40.44342 ]
    },
    "id" : 267,
    "name" : "Ciudad Universitaria 2",
    "number" : "259",
    "lines" : null
  }, {
    "address" : "Calle José Antonio Novais frente al nº 12",
    "geometry" : {
      "type" : "Point",
      "coordinates" : [ -3.7272945, 40.4483322 ]
    },
    "id" : 268,
    "name" : "Facultad Biología",
    "number" : "260",
    "lines" : null
  }, {
    "address" : "Avenida Complutense nº 23",
    "geometry" : {
      "type" : "Point",
      "coordinates" : [ -3.72937, 40.45109 ]
    },
    "id" : 269,
    "name" : "Facultad Derecho",
    "number" : "261",
    "lines" : null
  }, {
    "address" : "Puerta del Sol nº 1,",
    "geometry" : {
      "type" : "Point",
      "coordinates" : [ -3.7018341, 40.4172137 ]
    },
    "id" : 1404,
    "name" : "Puerta del Sol A",
    "number" : "1a",
    "lines" : null
  }, {
    "address" : "Calle Ribera de Curtidores nº 28,",
    "geometry" : {
      "type" : "Point",
      "coordinates" : [ -3.7071259, 40.4053153 ]
    },
    "id" : 1450,
    "name" : "Ribera de Curtidores",
    "number" : "46",
    "lines" : null
  }, {
    "address" : "Calle Doctor Esquerdo nº 191,",
    "geometry" : {
      "type" : "Point",
      "coordinates" : [ -3.6729, 40.4034 ]
    },
    "id" : 1487,
    "name" : "Valderribas",
    "number" : "84",
    "lines" : null
  }, {
    "address" : "Calle Palos de la Frontera nº 27,",
    "geometry" : {
      "type" : "Point",
      "coordinates" : [ -3.6948251018524214, 40.403090451430614 ]
    },
    "id" : 1526,
    "name" : "Palos de la Frontera",
    "number" : "120",
    "lines" : null
  }, {
    "address" : "Paseo de Santa María de la Cabeza nº 58,",
    "geometry" : {
      "type" : "Point",
      "coordinates" : [ -3.6986027, 40.4017487 ]
    },
    "id" : 1527,
    "name" : "Santa María de la Cabeza",
    "number" : "121",
    "lines" : null
  }, {
    "address" : "Avenida del General Perón frente al nº 4,",
    "geometry" : {
      "type" : "Point",
      "coordinates" : [ -3.6989, 40.4525 ]
    },
    "id" : 1558,
    "name" : "General Perón 1",
    "number" : "152",
    "lines" : null
  }, {
    "address" : "Avenida del General Perón frente al nº 36,",
    "geometry" : {
      "type" : "Point",
      "coordinates" : [ -3.6936, 40.4523 ]
    },
    "id" : 1559,
    "name" : "General Perón con Poeta Joan Maragall",
    "number" : "153",
    "lines" : null
  }, {
    "address" : "Paseo de las Delicias nº 94,",
    "geometry" : {
      "type" : "Point",
      "coordinates" : [ -3.69461, 40.39723 ]
    },
    "id" : 1570,
    "name" : "Paseo de las Delicias",
    "number" : "164",
    "lines" : null
  }, {
    "address" : "Paseo de la Chopera nº 53,",
    "geometry" : {
      "type" : "Point",
      "coordinates" : [ -3.697496559524538, 40.39279990173008 ]
    },
    "id" : 1571,
    "name" : "Entrada Matadero",
    "number" : "165",
    "lines" : null
  }, {
    "address" : "Calle Segovia nº 26,",
    "geometry" : {
      "type" : "Point",
      "coordinates" : [ -3.7133770233135133, 40.41390473235381 ]
    },
    "id" : 1572,
    "name" : "Segovia 26",
    "number" : "166",
    "lines" : null
  }, {
    "address" : "Paseo Castellana (Fundación Canal),",
    "geometry" : {
      "type" : "Point",
      "coordinates" : [ -3.6887, 40.4657 ]
    },
    "id" : 1615,
    "name" : "Plaza de Castilla 2",
    "number" : "209",
    "lines" : null
  }, {
    "address" : "Amparo Usera , 46,",
    "geometry" : {
      "type" : "Point",
      "coordinates" : [ -3.7061449, 40.38707469 ]
    },
    "id" : 1951,
    "name" : "Amparo Usera , 46",
    "number" : "384",
    "lines" : null
  }, {
    "address" : "Doctor Tolosa Latour, 7,",
    "geometry" : {
      "type" : "Point",
      "coordinates" : [ -3.70041478, 40.37837955 ]
    },
    "id" : 1952,
    "name" : "Doctor Tolosa Latour, 7",
    "number" : "388",
    "lines" : null
  }, {
    "address" : "Calle Campotejar , 25,",
    "geometry" : {
      "type" : "Point",
      "coordinates" : [ -3.70388671, 40.36721104 ]
    },
    "id" : 1953,
    "name" : "Calle Campotejar , 25",
    "number" : "385",
    "lines" : null
  }, {
    "address" : "Isabelita Usera, 44,",
    "geometry" : {
      "type" : "Point",
      "coordinates" : [ -3.70773972, 40.38272256 ]
    },
    "id" : 1954,
    "name" : "Isabelita Usera, 44",
    "number" : "387",
    "lines" : null
  }, {
    "address" : "Avenida de la Perla, 35,",
    "geometry" : {
      "type" : "Point",
      "coordinates" : [ -3.69397301, 40.3700018 ]
    },
    "id" : 1955,
    "name" : "Avenida de la Perla, 35",
    "number" : "383",
    "lines" : null
  }, {
    "address" : "Avenida de los Poblados, 130,",
    "geometry" : {
      "type" : "Point",
      "coordinates" : [ -3.71331521, 40.37347443 ]
    },
    "id" : 1956,
    "name" : "Avenida de los Poblados, 130",
    "number" : "386",
    "lines" : null
  }, {
    "address" : "Avenida Ramon y Cajal, 101,",
    "geometry" : {
      "type" : "Point",
      "coordinates" : [ -3.662016, 40.453493 ]
    },
    "id" : 1957,
    "name" : "Avenida Ramon y Cajal, 101",
    "number" : "476",
    "lines" : null
  }, {
    "address" : "Misterios,1,",
    "geometry" : {
      "type" : "Point",
      "coordinates" : [ -3.638904, 40.438278 ]
    },
    "id" : 1958,
    "name" : "Misterios, 1",
    "number" : "477",
    "lines" : null
  }, {
    "address" : "Jose del Hierro , 69,",
    "geometry" : {
      "type" : "Point",
      "coordinates" : [ -3.6410572, 40.44152084 ]
    },
    "id" : 1959,
    "name" : "Jose del Hierro , 69",
    "number" : "478",
    "lines" : null
  }, {
    "address" : "Angel Muñoz, 1,",
    "geometry" : {
      "type" : "Point",
      "coordinates" : [ -3.6558371312827975, 40.45478362295884 ]
    },
    "id" : 1960,
    "name" : "Angel Muñoz, 1",
    "number" : "479",
    "lines" : null
  }, {
    "address" : "Vicente Muzas, 12,",
    "geometry" : {
      "type" : "Point",
      "coordinates" : [ -3.66044255, 40.45903315 ]
    },
    "id" : 1961,
    "name" : "Vicente Muzas, 12",
    "number" : "480",
    "lines" : null
  }, {
    "address" : "Diego Ayllon, 2,",
    "geometry" : {
      "type" : "Point",
      "coordinates" : [ -3.65219063, 40.45117857 ]
    },
    "id" : 1962,
    "name" : "Diego Ayllon, 2",
    "number" : "481",
    "lines" : null
  }, {
    "address" : "Avenida Burgos, 17,",
    "geometry" : {
      "type" : "Point",
      "coordinates" : [ -3.6759, 40.4736 ]
    },
    "id" : 1964,
    "name" : "Avenida Burgos, 17",
    "number" : "284",
    "lines" : null
  }, {
    "address" : "Campuzano, 1,",
    "geometry" : {
      "type" : "Point",
      "coordinates" : [ -3.6424, 40.4359 ]
    },
    "id" : 1965,
    "name" : "Campuzano, 1",
    "number" : "482",
    "lines" : null
  }, {
    "address" : "Calle Marcelino Alvarez, 35,",
    "geometry" : {
      "type" : "Point",
      "coordinates" : [ -3.6534324, 40.4297428 ]
    },
    "id" : 1966,
    "name" : "Calle Marcelino Alvarez, 35",
    "number" : "483",
    "lines" : null
  }, {
    "address" : "Calle Luis del Campo, 3,",
    "geometry" : {
      "type" : "Point",
      "coordinates" : [ -3.632389, 40.42893071 ]
    },
    "id" : 1967,
    "name" : "Calle Luis del Campo, 3",
    "number" : "484",
    "lines" : null
  }, {
    "address" : "Calle de la Carretera de Canillas, 40,",
    "geometry" : {
      "type" : "Point",
      "coordinates" : [ -3.65089253, 40.4628701 ]
    },
    "id" : 1968,
    "name" : "Calle de la Carretera de Canillas, 40",
    "number" : "523",
    "lines" : null
  }, {
    "address" : "Calle Santa Maria Magdalena, 15,",
    "geometry" : {
      "type" : "Point",
      "coordinates" : [ -3.6706, 40.4631 ]
    },
    "id" : 1969,
    "name" : "Calle Santa Maria Magdalena, 15",
    "number" : "285",
    "lines" : null
  }, {
    "address" : "Plaza Duque Pastrana, 1,",
    "geometry" : {
      "type" : "Point",
      "coordinates" : [ -3.6779, 40.4679 ]
    },
    "id" : 1970,
    "name" : "Plaza Duque Pastrana, 1",
    "number" : "286",
    "lines" : null
  }, {
    "address" : "Memorial 11 Marzo de 2004, 28,",
    "geometry" : {
      "type" : "Point",
      "coordinates" : [ -3.6723, 40.4664 ]
    },
    "id" : 1972,
    "name" : "Memorial 11 Marzo de 2004, 28",
    "number" : "288",
    "lines" : null
  }, {
    "address" : "Glorieta Luis Rosales, sn,",
    "geometry" : {
      "type" : "Point",
      "coordinates" : [ -3.6543, 40.4673 ]
    },
    "id" : 1973,
    "name" : "Glorieta Luis Rosales, sn",
    "number" : "524",
    "lines" : null
  }, {
    "address" : "Luis de Hoyos Sainz, 198,",
    "geometry" : {
      "type" : "Point",
      "coordinates" : [ -3.62927465, 40.400094 ]
    },
    "id" : 1975,
    "name" : "Luis de Hoyos Sainz, 198",
    "number" : "455",
    "lines" : null
  }, {
    "address" : "Encomienda de Palacios, 8,",
    "geometry" : {
      "type" : "Point",
      "coordinates" : [ -3.6464, 40.4005 ]
    },
    "id" : 1976,
    "name" : "Encomienda de Palacios, 8",
    "number" : "456",
    "lines" : null
  }, {
    "address" : "Calle Ramirez Tome, 31,",
    "geometry" : {
      "type" : "Point",
      "coordinates" : [ -3.6459739361763055, 40.38875618103898 ]
    },
    "id" : 1977,
    "name" : "Calle Ramirez Tome, 31",
    "number" : "416",
    "lines" : null
  }, {
    "address" : "Calle de Romeo y Julieta, 12,",
    "geometry" : {
      "type" : "Point",
      "coordinates" : [ -3.66217563, 40.37873799 ]
    },
    "id" : 1978,
    "name" : "Calle de Romeo y Julieta, 12",
    "number" : "417",
    "lines" : null
  }, {
    "address" : "Calle Puerto de Arlaban, 83,",
    "geometry" : {
      "type" : "Point",
      "coordinates" : [ -3.6675, 40.3864 ]
    },
    "id" : 1979,
    "name" : "Calle Puerto de Arlaban, 83",
    "number" : "418",
    "lines" : null
  }, {
    "address" : "Calle Cronos , 14,",
    "geometry" : {
      "type" : "Point",
      "coordinates" : [ -3.6194333, 40.4384695 ]
    },
    "id" : 1980,
    "name" : "Calle Cronos , 14",
    "number" : "496",
    "lines" : null
  }, {
    "address" : "Calle Alcalá, 506,",
    "geometry" : {
      "type" : "Point",
      "coordinates" : [ -3.6274, 40.4407 ]
    },
    "id" : 1985,
    "name" : "Calle Alcala, 506",
    "number" : "497",
    "lines" : null
  }, {
    "address" : "Calle Puerto Serrano, 1,",
    "geometry" : {
      "type" : "Point",
      "coordinates" : [ -3.6874911558197088, 40.38610668169473 ]
    },
    "id" : 1986,
    "name" : "Calle Puerto Serrano, 1",
    "number" : "265",
    "lines" : null
  }, {
    "address" : "Calle Comandante Fontanes, 1,",
    "geometry" : {
      "type" : "Point",
      "coordinates" : [ -3.721173399999999, 40.3950918 ]
    },
    "id" : 1987,
    "name" : "Calle Comandante Fontanes, 1",
    "number" : "351",
    "lines" : null
  }, {
    "address" : "Calle de Ervigio,",
    "geometry" : {
      "type" : "Point",
      "coordinates" : [ -3.7315, 40.3947 ]
    },
    "id" : 1988,
    "name" : "Calle de Ervigio",
    "number" : "350",
    "lines" : null
  }, {
    "address" : "Julio Merino, 5,",
    "geometry" : {
      "type" : "Point",
      "coordinates" : [ -3.7032, 40.3831 ]
    },
    "id" : 1989,
    "name" : "Julio Merino, 5",
    "number" : "389",
    "lines" : null
  }, {
    "address" : "Calle de la Avena, 10,",
    "geometry" : {
      "type" : "Point",
      "coordinates" : [ -3.7159, 40.3773 ]
    },
    "id" : 1990,
    "name" : "Calle de la Avena, 10",
    "number" : "390",
    "lines" : null
  }, {
    "address" : "Francisco Villaespesa, 39,",
    "geometry" : {
      "type" : "Point",
      "coordinates" : [ -3.6464629, 40.4293263 ]
    },
    "id" : 1993,
    "name" : "Francisco Villaespesa, 39",
    "number" : "485",
    "lines" : null
  }, {
    "address" : "Calle Hernani,",
    "geometry" : {
      "type" : "Point",
      "coordinates" : [ -3.6972, 40.4481 ]
    },
    "id" : 1995,
    "name" : "Calle Hernani",
    "number" : "295",
    "lines" : null
  }, {
    "address" : "Calle de Costa Verde, 24,",
    "geometry" : {
      "type" : "Point",
      "coordinates" : [ -3.6971, 40.4696 ]
    },
    "id" : 1996,
    "name" : "Calle de Costa Verde, 24",
    "number" : "296",
    "lines" : null
  }, {
    "address" : "Calle Simancas,",
    "geometry" : {
      "type" : "Point",
      "coordinates" : [ -3.69511298, 40.4655 ]
    },
    "id" : 1997,
    "name" : "Calle Simancas",
    "number" : "297",
    "lines" : null
  }, {
    "address" : "Calle Gallur, 5,",
    "geometry" : {
      "type" : "Point",
      "coordinates" : [ -3.7359, 40.3984 ]
    },
    "id" : 1998,
    "name" : "Calle Gallur, 5",
    "number" : "323",
    "lines" : null
  }, {
    "address" : "Calle de las Higueras, 49,",
    "geometry" : {
      "type" : "Point",
      "coordinates" : [ -3.7453, 40.4047 ]
    },
    "id" : 1999,
    "name" : "Calle de las Higueras, 49",
    "number" : "324",
    "lines" : null
  }, {
    "address" : "Calle del Marques de Viana,91. Madrid ,",
    "geometry" : {
      "type" : "Point",
      "coordinates" : [ -3.7045684, 40.4637825 ]
    },
    "id" : 2002,
    "name" : "Calle del Marques de Viana",
    "number" : "298",
    "lines" : null
  }, {
    "address" : "Fernando Gabriel , 5,",
    "geometry" : {
      "type" : "Point",
      "coordinates" : [ -3.63949891, 40.42466356 ]
    },
    "id" : 2006,
    "name" : "Fernando Gabriel , 5",
    "number" : "492",
    "lines" : null
  }, {
    "address" : "Paseo de los Jesuitas, 67,",
    "geometry" : {
      "type" : "Point",
      "coordinates" : [ -3.7351, 40.408 ]
    },
    "id" : 2007,
    "name" : "Paseo de los Jesuitas, 67",
    "number" : "322",
    "lines" : null
  }, {
    "address" : "Calle de Candilejas, 5,",
    "geometry" : {
      "type" : "Point",
      "coordinates" : [ -3.66300383, 40.38263599 ]
    },
    "id" : 2009,
    "name" : "Calle de Candilejas, 5",
    "number" : "420",
    "lines" : null
  }, {
    "address" : "Calle Puerto de Balbaran, 10,",
    "geometry" : {
      "type" : "Point",
      "coordinates" : [ -3.655868, 40.3762374 ]
    },
    "id" : 2010,
    "name" : "Calle Puerto de Balbaran, 10",
    "number" : "419",
    "lines" : null
  }, {
    "address" : "Calle Melchor Fernandez Almagro, 80,",
    "geometry" : {
      "type" : "Point",
      "coordinates" : [ -3.710326199999999, 40.4756475 ]
    },
    "id" : 2014,
    "name" : "Calle Melchor Fernandez Almagro, 80",
    "number" : "571",
    "lines" : null
  }, {
    "address" : "Calle Valle de Mena, 5,",
    "geometry" : {
      "type" : "Point",
      "coordinates" : [ -3.71527245, 40.46962735 ]
    },
    "id" : 2015,
    "name" : "Calle Valle de Mena, 5",
    "number" : "304",
    "lines" : null
  }, {
    "address" : "Avenida de la Albufera,",
    "geometry" : {
      "type" : "Point",
      "coordinates" : [ -3.6571, 40.3919 ]
    },
    "id" : 2032,
    "name" : "Avenida de la Albufera, 136",
    "number" : "428",
    "lines" : null
  }, {
    "address" : "Manuel Noya , 29,",
    "geometry" : {
      "type" : "Point",
      "coordinates" : [ -3.7117979, 40.3853787 ]
    },
    "id" : 2033,
    "name" : "Manuel Noya , 29",
    "number" : "393",
    "lines" : null
  }, {
    "address" : "Serrano Galvache, 56,",
    "geometry" : {
      "type" : "Point",
      "coordinates" : [ -3.67144504, 40.47675257 ]
    },
    "id" : 2034,
    "name" : "Serrano Galvache, 56",
    "number" : "489",
    "lines" : null
  }, {
    "address" : "Hermanos Garcia Noblejas, 158,",
    "geometry" : {
      "type" : "Point",
      "coordinates" : [ -3.62888094, 40.42427523 ]
    },
    "id" : 2035,
    "name" : "Hermanos Garcia Noblejas, 158",
    "number" : "490",
    "lines" : null
  }, {
    "address" : "Calle Ricardo Ortiz, 33,",
    "geometry" : {
      "type" : "Point",
      "coordinates" : [ -3.65796439, 40.42657032 ]
    },
    "id" : 2036,
    "name" : "Calle Ricardo Ortiz, 33",
    "number" : "488",
    "lines" : null
  }, {
    "address" : "Calle de Bacares, 20,",
    "geometry" : {
      "type" : "Point",
      "coordinates" : [ -3.66269029, 40.47675499 ]
    },
    "id" : 2037,
    "name" : "Calle de Bacares, 20",
    "number" : "525",
    "lines" : null
  }, {
    "address" : "Calle de San Roman del Valle, 20,",
    "geometry" : {
      "type" : "Point",
      "coordinates" : [ -3.623466935545257, 40.42309928573645 ]
    },
    "id" : 2038,
    "name" : "Calle de San Roman del Valle, 20",
    "number" : "504",
    "lines" : null
  }, {
    "address" : "Calle Zaldivar,",
    "geometry" : {
      "type" : "Point",
      "coordinates" : [ -3.62650373, 40.43209033 ]
    },
    "id" : 2039,
    "name" : "Calle Zaldivar",
    "number" : "503",
    "lines" : null
  }, {
    "address" : "Calle Jacinto Verdaguer, 12,",
    "geometry" : {
      "type" : "Point",
      "coordinates" : [ -3.71605423, 40.3959431 ]
    },
    "id" : 2040,
    "name" : "Calle Jacinto Verdaguer, 12",
    "number" : "354",
    "lines" : null
  }, {
    "address" : "Calle Mercedes Arteaga, 21,",
    "geometry" : {
      "type" : "Point",
      "coordinates" : [ -3.72231413, 40.39239351 ]
    },
    "id" : 2041,
    "name" : "Calle Mercedes Arteaga, 21",
    "number" : "353",
    "lines" : null
  }, {
    "address" : "Calle de la Via,",
    "geometry" : {
      "type" : "Point",
      "coordinates" : [ -3.7182338, 40.3854641 ]
    },
    "id" : 2042,
    "name" : "Calle de la Via, 52",
    "number" : "355",
    "lines" : null
  }, {
    "address" : "Calle Francisco de Tejada, 1,",
    "geometry" : {
      "type" : "Point",
      "coordinates" : [ -3.7393717, 40.4095 ]
    },
    "id" : 2043,
    "name" : "Calle Francisco de Tejada, 1",
    "number" : "326",
    "lines" : null
  }, {
    "address" : "Calle El Greco, 27,",
    "geometry" : {
      "type" : "Point",
      "coordinates" : [ -3.74726153, 40.40741199 ]
    },
    "id" : 2044,
    "name" : "Calle El Greco, 27",
    "number" : "327",
    "lines" : null
  }, {
    "address" : "Corregidor licenciado Antonio de Mena, sn,",
    "geometry" : {
      "type" : "Point",
      "coordinates" : [ -3.6408, 40.4099 ]
    },
    "id" : 2047,
    "name" : "Corregidor licenciado Antonio de Mena, sn",
    "number" : "461",
    "lines" : null
  }, {
    "address" : "Calle Portalegre, 7,",
    "geometry" : {
      "type" : "Point",
      "coordinates" : [ -3.72364769, 40.38937686 ]
    },
    "id" : 2048,
    "name" : "Calle Portalegre, 7",
    "number" : "356",
    "lines" : null
  }, {
    "address" : "Guetaria , 84,",
    "geometry" : {
      "type" : "Point",
      "coordinates" : [ -3.71569102, 40.36916772 ]
    },
    "id" : 2058,
    "name" : "Guetaria , 84",
    "number" : "395",
    "lines" : null
  }, {
    "address" : "Calle Ariel, 7,",
    "geometry" : {
      "type" : "Point",
      "coordinates" : [ -3.67970176633988, 40.393023802369754 ]
    },
    "id" : 2064,
    "name" : "Calle Ariel, 7",
    "number" : "269",
    "lines" : null
  }, {
    "address" : "Calle de Velacho Alto, 2,",
    "geometry" : {
      "type" : "Point",
      "coordinates" : [ -3.65926884, 40.47250314 ]
    },
    "id" : 2066,
    "name" : "Calle de Velacho Alto, 2",
    "number" : "527",
    "lines" : null
  }, {
    "address" : "Plaza del Liceo,",
    "geometry" : {
      "type" : "Point",
      "coordinates" : [ -3.64441924, 40.45754368 ]
    },
    "id" : 2067,
    "name" : "Plaza del Liceo",
    "number" : "526",
    "lines" : null
  }, {
    "address" : "Puerto del Canfranc, 18,",
    "geometry" : {
      "type" : "Point",
      "coordinates" : [ -3.6634, 40.3969 ]
    },
    "id" : 2068,
    "name" : "Puerto del Canfranc, 18",
    "number" : "431",
    "lines" : null
  }, {
    "address" : "Calle de Carlos Martin Alvarez, 38,",
    "geometry" : {
      "type" : "Point",
      "coordinates" : [ -3.6635, 40.3895 ]
    },
    "id" : 2069,
    "name" : "Calle de Carlos Martin Alvarez, 38",
    "number" : "429",
    "lines" : null
  }, {
    "address" : "Calle Teresa López Valcárcel esq. Teniente Coronel Noreña,",
    "geometry" : {
      "type" : "Point",
      "coordinates" : [ -3.69328771, 40.38862908 ]
    },
    "id" : 2071,
    "name" : "Calle Teresa López Valcárcel",
    "number" : "270",
    "lines" : null
  }, {
    "address" : "Paseo de la Chopera,33,Comunidad de Madrid España",
    "geometry" : {
      "type" : "Point",
      "coordinates" : [ -3.7004, 40.395 ]
    },
    "id" : 2205,
    "name" : "Paseo de la Chopera, 33",
    "number" : "267",
    "lines" : null
  }, {
    "address" : "Calle Rafaela Ybarra, 22,Comunidad de Madrid España",
    "geometry" : {
      "type" : "Point",
      "coordinates" : [ -3.711028, 40.381578 ]
    },
    "id" : 2207,
    "name" : "Calle Rafaela Ybarra, 22",
    "number" : "391",
    "lines" : null
  }, {
    "address" : "Paseo de la Castellana nº 122,",
    "geometry" : {
      "type" : "Point",
      "coordinates" : [ -3.6908, 40.4491 ]
    },
    "id" : 2224,
    "name" : "Castellana frente a Hermanos Pinzón",
    "number" : "150",
    "lines" : null
  }, {
    "address" : "Calle Ibiza nº 18,",
    "geometry" : {
      "type" : "Point",
      "coordinates" : [ -3.676443540475469, 40.41816932665331 ]
    },
    "id" : 1587,
    "name" : "Retiro-Ibiza",
    "number" : "181",
    "lines" : null
  }, {
    "address" : "Avenida de Menéndez Pelayo nº 69,",
    "geometry" : {
      "type" : "Point",
      "coordinates" : [ -3.676588763788984, 40.41206290978386 ]
    },
    "id" : 1476,
    "name" : "Puerta del Pacífico ",
    "number" : "74",
    "lines" : null
  }, {
    "address" : "Avenida de Menéndez Pelayo nº 63,",
    "geometry" : {
      "type" : "Point",
      "coordinates" : [ -3.677872542327878, 40.415382385574716 ]
    },
    "id" : 1472,
    "name" : "Puerta del Doce de Octubre",
    "number" : "70",
    "lines" : null
  }, {
    "address" : "Avenida de Menéndez Pelayo, 9,",
    "geometry" : {
      "type" : "Point",
      "coordinates" : [ -3.679891, 40.4213143 ]
    },
    "id" : 1488,
    "name" : "Puerta de Madrid",
    "number" : "85",
    "lines" : null
  }, {
    "address" : "Avenida de Menéndez Pelayo con calle Poeta Esteban Villegas,",
    "geometry" : {
      "type" : "Point",
      "coordinates" : [ -3.6784749, 40.4082717 ]
    },
    "id" : 1477,
    "name" : "Menéndez Pelayo",
    "number" : "75",
    "lines" : null
  }, {
    "address" : "Avenida de Menéndez Pelayo nº 38,",
    "geometry" : {
      "type" : "Point",
      "coordinates" : [ -3.6803455, 40.4050319 ]
    },
    "id" : 1481,
    "name" : "Puerta de Granada",
    "number" : "79",
    "lines" : null
  }, {
    "address" : "Paseo de la Castellana nº 216,",
    "geometry" : {
      "type" : "Point",
      "coordinates" : [ -3.6890611, 40.4662811 ]
    },
    "id" : 1614,
    "name" : "Plaza de Castilla",
    "number" : "208",
    "lines" : null
  }, {
    "address" : "Paseo de la Castellana nº 164,Comunidad de Madrid España",
    "geometry" : {
      "type" : "Point",
      "coordinates" : [ -3.6893, 40.4591366 ]
    },
    "id" : 2225,
    "name" : "Castellana 164",
    "number" : "157b",
    "lines" : null
  }, {
    "address" : "Calle José Ortega y Gasset nº 4,",
    "geometry" : {
      "type" : "Point",
      "coordinates" : [ -3.6867, 40.4304 ]
    },
    "id" : 1506,
    "name" : "Ortega y Gasset",
    "number" : "103",
    "lines" : null
  }, {
    "address" : "Calle General Pardiñas nº 56,",
    "geometry" : {
      "type" : "Point",
      "coordinates" : [ -3.6780802, 40.434676 ]
    },
    "id" : 1592,
    "name" : "General Pardiñas",
    "number" : "186",
    "lines" : null
  }, {
    "address" : "Calle Juan Bravo nº 50,",
    "geometry" : {
      "type" : "Point",
      "coordinates" : [ -3.675556, 40.4324081 ]
    },
    "id" : 1550,
    "name" : "Juan Bravo 50",
    "number" : "144",
    "lines" : null
  }, {
    "address" : "Paseo de la Castellana nº 164",
    "geometry" : {
      "type" : "Point",
      "coordinates" : [ -3.6894151, 40.4591366 ]
    },
    "id" : 137,
    "name" : "Castellana 164",
    "number" : "157",
    "lines" : null
  } ],
  "name" : "Stops_Bicycle"
}