{
  "data" : [ {
    "id" : 1,
    "name" : "Puerta del Sol A",
    "number" : "1a",
    "address" : "Puerta del Sol nº 1",
    "geometry" : {
      "type" : "Point",
      "coordinates" : [ -3.7018341, 40.4172137 ]
    },
    "lines" : null
  }, {
    "id" : 2,
    "name" : "Puerta del Sol B",
    "number" : "1b",
    "address" : "Puerta del Sol nº 1",
    "geometry" : {
      "type" : "Point",
      "coordinates" : [ -3.701602938060457, 40.41731271011562 ]
    },
    "lines" : null
  }, {
    "id" : 3,
    "name" : "Miguel Moya",
    "number" : "2",
    "address" : "Calle Miguel Moya nº 1",
    "geometry" : {
      "type" : "Point",
      "coordinates" : [ -3.7058415, 40.4205886 ]
    },
    "lines" : null
  }, {
    "id" : 4,
    "name" : "Plaza Conde Suchil",
    "number" : "3",
    "address" : "Plaza del Conde del Valle de Súchil nº 3",
    "geometry" : {
      "type" : "Point",
      "coordinates" : [ -3.7069171, 40.4302937 ]
    },
    "lines" : null
  }, {
    "id" : 5,
    "name" : "Malasaña",
    "number" : "4",
    "address" : "Calle Manuela Malasaña nº 5",
    "geometry" : {
      "type" : "Point",
      "coordinates" : [ -3.7025875, 40.4285524 ]
    },
    "lines" : null
  }, {
    "id" : 6,
    "name" : "Fuencarral",
    "number" : "5",
    "address" : "Calle Fuencarral nº 108",
    "geometry" : {
      "type" : "Point",
      "coordinates" : [ -3.70205, 40.42852 ]
    },
    "lines" : null
  }, {
    "id" : 7,
    "name" : "Colegio Arquitectos",
    "number" : "6",
    "address" : "Calle Hortaleza nº 63",
    "geometry" : {
      "type" : "Point",
      "coordinates" : [ -3.698447, 40.424148 ]
    },
    "lines" : null
  }, {
    "id" : 8,
    "name" : "Hortaleza",
    "number" : "7",
    "address" : "Calle Hortaleza nº 75",
    "geometry" : {
      "type" : "Point",
      "coordinates" : [ -3.6977715, 40.4251906 ]
    },
    "lines" : null
  }, {
    "id" : 9,
    "name" : "Alonso Martínez",
    "number" : "8",
    "address" : "Plaza de Alonso Martínez nº 5",
    "geometry" : {
      "type" : "Point",
      "coordinates" : [ -3.6954403, 40.4278682 ]
    },
    "lines" : null
  }, {
    "id" : 10,
    "name" : "Plaza de San Miguel",
    "number" : "9",
    "address" : "Plaza de San Miguel nº 9",
    "geometry" : {
      "type" : "Point",
      "coordinates" : [ -3.7095084, 40.4156057 ]
    },
    "lines" : null
  }, {
    "id" : 11,
    "name" : "Marqués de la Ensenada",
    "number" : "10",
    "address" : "Calle Marqués de la Ensenada nº 16",
    "geometry" : {
      "type" : "Point",
      "coordinates" : [ -3.69214, 40.42533 ]
    },
    "lines" : null
  }, {
    "id" : 12,
    "name" : "San Andrés",
    "number" : "11",
    "address" : "Calle San Andrés nº 18",
    "geometry" : {
      "type" : "Point",
      "coordinates" : [ -3.7035918, 40.4269483 ]
    },
    "lines" : null
  }, {
    "id" : 13,
    "name" : "San Hermenegildo",
    "number" : "12",
    "address" : "Calle San Bernardo nº 85",
    "geometry" : {
      "type" : "Point",
      "coordinates" : [ -3.7061931, 40.4284246 ]
    },
    "lines" : null
  }, {
    "id" : 14,
    "name" : "Conde Duque",
    "number" : "13",
    "address" : "Calle Conde Duque nº 22",
    "geometry" : {
      "type" : "Point",
      "coordinates" : [ -3.7104417, 40.4273264 ]
    },
    "lines" : null
  }, {
    "id" : 15,
    "name" : "Ventura Rodríguez",
    "number" : "14",
    "address" : "Calle Duque de Liria",
    "geometry" : {
      "type" : "Point",
      "coordinates" : [ -3.713479, 40.4260957 ]
    },
    "lines" : null
  }, {
    "id" : 16,
    "name" : "San Vicente Ferrer",
    "number" : "15",
    "address" : "Calle San Vicente Ferrer nº 64",
    "geometry" : {
      "type" : "Point",
      "coordinates" : [ -3.7074453, 40.4262383 ]
    },
    "lines" : null
  }, {
    "id" : 17,
    "name" : "San Bernardo",
    "number" : "16",
    "address" : "Calle San Bernardo nº 22",
    "geometry" : {
      "type" : "Point",
      "coordinates" : [ -3.7075065, 40.4230721 ]
    },
    "lines" : null
  }, {
    "id" : 18,
    "name" : "Carlos Cambronero",
    "number" : "17",
    "address" : "Plaza de Carlos Cambronero nº 2",
    "geometry" : {
      "type" : "Point",
      "coordinates" : [ -3.7038312, 40.4232649 ]
    },
    "lines" : null
  }, {
    "id" : 19,
    "name" : "Plaza de Pedro Zerolo",
    "number" : "18",
    "address" : "Plaza de Pedro Zerolo nº 1",
    "geometry" : {
      "type" : "Point",
      "coordinates" : [ -3.6996502, 40.4207773 ]
    },
    "lines" : null
  }, {
    "id" : 20,
    "name" : "Prim",
    "number" : "19",
    "address" : "Calle Prim nº 2",
    "geometry" : {
      "type" : "Point",
      "coordinates" : [ -3.6954983, 40.4218616 ]
    },
    "lines" : null
  }, {
    "id" : 21,
    "name" : "Banco de España A",
    "number" : "20a",
    "address" : "Calle Alcalá nº 49",
    "geometry" : {
      "type" : "Point",
      "coordinates" : [ -3.6954615, 40.4192342 ]
    },
    "lines" : null
  }, {
    "id" : 25,
    "name" : "Jacometrezo",
    "number" : "22",
    "address" : "Calle Jacometrezo nº 3",
    "geometry" : {
      "type" : "Point",
      "coordinates" : [ -3.7065376, 40.4200783 ]
    },
    "lines" : null
  }, {
    "id" : 26,
    "name" : "Santo Domingo",
    "number" : "23",
    "address" : "Plaza de Santo Domingo nº 1",
    "geometry" : {
      "type" : "Point",
      "coordinates" : [ -3.7081246, 40.4202834 ]
    },
    "lines" : null
  }, {
    "id" : 27,
    "name" : "Palacio de Oriente",
    "number" : "24",
    "address" : "Calle Carlos III nº 1",
    "geometry" : {
      "type" : "Point",
      "coordinates" : [ -3.710692, 40.417908 ]
    },
    "lines" : null
  }, {
    "id" : 28,
    "name" : "Plaza de Celenque A",
    "number" : "25a",
    "address" : "Plaza de Celenque nº 1",
    "geometry" : {
      "type" : "Point",
      "coordinates" : [ -3.7057791, 40.4173703 ]
    },
    "lines" : null
  }, {
    "id" : 29,
    "name" : "Plaza de Celenque B",
    "number" : "25b",
    "address" : "Plaza de Celenque nº 1",
    "geometry" : {
      "type" : "Point",
      "coordinates" : [ -3.7063837, 40.4172781 ]
    },
    "lines" : null
  }, {
    "id" : 30,
    "name" : "Plaza de las Salesas",
    "number" : "26",
    "address" : "Plaza de las Salesas 7",
    "geometry" : {
      "type" : "Point",
      "coordinates" : [ -3.694475, 40.423855 ]
    },
    "lines" : null
  }, {
    "id" : 31,
    "name" : "Huertas",
    "number" : "27",
    "address" : "Calle Jesús nº 1",
    "geometry" : {
      "type" : "Point",
      "coordinates" : [ -3.6956178, 40.4132798 ]
    },
    "lines" : null
  }, {
    "id" : 32,
    "name" : "Sevilla",
    "number" : "28",
    "address" : "Calle Alcalá nº 27",
    "geometry" : {
      "type" : "Point",
      "coordinates" : [ -3.6984368, 40.4181518 ]
    },
    "lines" : null
  }, {
    "id" : 33,
    "name" : "Marqués de Cubas",
    "number" : "29",
    "address" : "Calle del Marqués de Cubas nº 25",
    "geometry" : {
      "type" : "Point",
      "coordinates" : [ -3.6957355, 40.4162619 ]
    },
    "lines" : null
  }, {
    "id" : 34,
    "name" : "San Quintín",
    "number" : "30",
    "address" : "Calle Pavía nº 6",
    "geometry" : {
      "type" : "Point",
      "coordinates" : [ -3.711504, 40.4192095 ]
    },
    "lines" : null
  }, {
    "id" : 35,
    "name" : "Calle Mayor",
    "number" : "31",
    "address" : "Calle Mayor nº 20",
    "geometry" : {
      "type" : "Point",
      "coordinates" : [ -3.7068969, 40.4163638 ]
    },
    "lines" : null
  }, {
    "id" : 36,
    "name" : "Plaza de la Provincia",
    "number" : "32",
    "address" : "Plaza de la Provincia nº 1",
    "geometry" : {
      "type" : "Point",
      "coordinates" : [ -3.7061032, 40.4150099 ]
    },
    "lines" : null
  }, {
    "id" : 37,
    "name" : "Carretas",
    "number" : "33",
    "address" : "Calle Carretas nº 8",
    "geometry" : {
      "type" : "Point",
      "coordinates" : [ -3.7030833, 40.4165039 ]
    },
    "lines" : null
  }, {
    "id" : 38,
    "name" : "Jacinto Benavente",
    "number" : "34",
    "address" : "Plaza de Jacinto Benavente",
    "geometry" : {
      "type" : "Point",
      "coordinates" : [ -3.7036825, 40.4146755 ]
    },
    "lines" : null
  }, {
    "id" : 39,
    "name" : "Plaza del Cordón",
    "number" : "35",
    "address" : "Plaza del Cordón",
    "geometry" : {
      "type" : "Point",
      "coordinates" : [ -3.7103285, 40.4141931 ]
    },
    "lines" : null
  }, {
    "id" : 40,
    "name" : "Plaza Ramales",
    "number" : "36",
    "address" : "Plaza de Ramales",
    "geometry" : {
      "type" : "Point",
      "coordinates" : [ -3.71183, 40.4168 ]
    },
    "lines" : null
  }, {
    "id" : 41,
    "name" : "Plaza de San Francisco",
    "number" : "37",
    "address" : "Plaza de San Francisco nº 5",
    "geometry" : {
      "type" : "Point",
      "coordinates" : [ -3.714113, 40.4108 ]
    },
    "lines" : null
  }, {
    "id" : 42,
    "name" : "Plaza de los Carros",
    "number" : "38",
    "address" : "Carrera de San Francisco nº 1",
    "geometry" : {
      "type" : "Point",
      "coordinates" : [ -3.7114762, 40.4114041 ]
    },
    "lines" : null
  }, {
    "id" : 43,
    "name" : "Plaza de la Cebada",
    "number" : "39",
    "address" : "Plaza de la Cebada nº 16 ",
    "geometry" : {
      "type" : "Point",
      "coordinates" : [ -3.7088337, 40.4112744 ]
    },
    "lines" : null
  }, {
    "id" : 44,
    "name" : "Conde de Romanones",
    "number" : "40",
    "address" : "Plaza del Conde de Romanones nº 9",
    "geometry" : {
      "type" : "Point",
      "coordinates" : [ -3.7049407, 40.4138846 ]
    },
    "lines" : null
  }, {
    "id" : 45,
    "name" : "Antón Martín",
    "number" : "41",
    "address" : "Calle Atocha nº 54",
    "geometry" : {
      "type" : "Point",
      "coordinates" : [ -3.6991147, 40.4122047 ]
    },
    "lines" : null
  }, {
    "id" : 46,
    "name" : "Santa Isabel",
    "number" : "42",
    "address" : "Calle Atocha nº 95",
    "geometry" : {
      "type" : "Point",
      "coordinates" : [ -3.6982318, 40.4107085 ]
    },
    "lines" : null
  }, {
    "id" : 47,
    "name" : "Jesús y María",
    "number" : "43",
    "address" : "Calle Lavapiés nº 34",
    "geometry" : {
      "type" : "Point",
      "coordinates" : [ -3.7025024, 40.4101564 ]
    },
    "lines" : null
  }, {
    "id" : 48,
    "name" : "Plaza de Nelson Mandela",
    "number" : "44",
    "address" : "Calle Mesón de Paredes nº 35",
    "geometry" : {
      "type" : "Point",
      "coordinates" : [ -3.7040666, 40.4097617 ]
    },
    "lines" : null
  }, {
    "id" : 49,
    "name" : "Puerta de Toledo",
    "number" : "45",
    "address" : "Glorieta de la Puerta de Toledo nº 1",
    "geometry" : {
      "type" : "Point",
      "coordinates" : [ -3.7110513, 40.4070358 ]
    },
    "lines" : null
  }, {
    "id" : 50,
    "name" : "Ribera de Curtidores",
    "number" : "46",
    "address" : "Calle Ribera de Curtidores nº 28",
    "geometry" : {
      "type" : "Point",
      "coordinates" : [ -3.7071259, 40.4053153 ]
    },
    "lines" : null
  }, {
    "id" : 51,
    "name" : "Embajadores 1",
    "number" : "47",
    "address" : "Glorieta de Embajadores nº 6",
    "geometry" : {
      "type" : "Point",
      "coordinates" : [ -3.7028265, 40.4047851 ]
    },
    "lines" : null
  }, {
    "id" : 52,
    "name" : "Embajadores 2",
    "number" : "48",
    "address" : "Glorieta de Embajadores nº 2",
    "geometry" : {
      "type" : "Point",
      "coordinates" : [ -3.7022591, 40.4056107 ]
    },
    "lines" : null
  }, {
    "id" : 53,
    "name" : "Casa Encendida",
    "number" : "49",
    "address" : "Ronda de Atocha nº 34",
    "geometry" : {
      "type" : "Point",
      "coordinates" : [ -3.6992759, 40.4060941 ]
    },
    "lines" : null
  }, {
    "id" : 54,
    "name" : "Museo Reina Sofía",
    "number" : "50",
    "address" : "Calle Santa Isabel nº 57",
    "geometry" : {
      "type" : "Point",
      "coordinates" : [ -3.6933463, 40.4083684 ]
    },
    "lines" : null
  }, {
    "id" : 55,
    "name" : "Ronda de Atocha",
    "number" : "51",
    "address" : "Ronda de Atocha nº 2",
    "geometry" : {
      "type" : "Point",
      "coordinates" : [ -3.6935205, 40.4075606 ]
    },
    "lines" : null
  }, {
    "id" : 56,
    "name" : "Plaza de Santa Ana",
    "number" : "52",
    "address" : "Plaza de Santa Ana nº 10",
    "geometry" : {
      "type" : "Point",
      "coordinates" : [ -3.7007164, 40.4144226 ]
    },
    "lines" : null
  }, {
    "id" : 57,
    "name" : "Plaza de Lavapiés",
    "number" : "53",
    "address" : "Calle Valencia nº 1",
    "geometry" : {
      "type" : "Point",
      "coordinates" : [ -3.7007111, 40.4083061 ]
    },
    "lines" : null
  }, {
    "id" : 58,
    "name" : "Barceló",
    "number" : "54",
    "address" : "Calle Barceló nº 7",
    "geometry" : {
      "type" : "Point",
      "coordinates" : [ -3.700423, 40.4266828 ]
    },
    "lines" : null
  }, {
    "id" : 59,
    "name" : "Plaza de San Ildefonso",
    "number" : "55",
    "address" : "Plaza de San Ildefonso",
    "geometry" : {
      "type" : "Point",
      "coordinates" : [ -3.7020842, 40.4239757 ]
    },
    "lines" : null
  }, {
    "id" : 60,
    "name" : "Plaza del Carmen ",
    "number" : "56",
    "address" : "Plaza del Carmen nº 1",
    "geometry" : {
      "type" : "Point",
      "coordinates" : [ -3.7032414, 40.4184192 ]
    },
    "lines" : null
  }, {
    "id" : 61,
    "name" : "Santa Cruz del Marcenado",
    "number" : "57",
    "address" : "Calle Santa Cruz del Marcenado nº 24",
    "geometry" : {
      "type" : "Point",
      "coordinates" : [ -3.7126299, 40.4295658 ]
    },
    "lines" : null
  }, {
    "id" : 62,
    "name" : "Augusto Figueroa",
    "number" : "58",
    "address" : "Calle Augusto Figueroa nº 33",
    "geometry" : {
      "type" : "Point",
      "coordinates" : [ -3.697895, 40.4222862 ]
    },
    "lines" : null
  }, {
    "id" : 63,
    "name" : "Plaza de Juan Pujol",
    "number" : "59",
    "address" : "Calle Espíritu Santo nº 30",
    "geometry" : {
      "type" : "Point",
      "coordinates" : [ -3.7043418, 40.4255495 ]
    },
    "lines" : null
  }, {
    "id" : 64,
    "name" : "Plaza de la Independencia",
    "number" : "60",
    "address" : "Plaza de la Independencia nº 6",
    "geometry" : {
      "type" : "Point",
      "coordinates" : [ -3.688398, 40.419752 ]
    },
    "lines" : null
  }, {
    "id" : 65,
    "name" : "Narváez",
    "number" : "61",
    "address" : "Calle O'Donnell nº 28",
    "geometry" : {
      "type" : "Point",
      "coordinates" : [ -3.6752045, 40.4213983 ]
    },
    "lines" : null
  }, {
    "id" : 66,
    "name" : "O'Donnell",
    "number" : "62",
    "address" : "Calle O'Donnell nº 50",
    "geometry" : {
      "type" : "Point",
      "coordinates" : [ -3.6724968, 40.4213148 ]
    },
    "lines" : null
  }, {
    "id" : 67,
    "name" : "Ibiza",
    "number" : "63",
    "address" : "Calle Ibiza nº 62",
    "geometry" : {
      "type" : "Point",
      "coordinates" : [ -3.6708959, 40.4179237 ]
    },
    "lines" : null
  }, {
    "id" : 69,
    "name" : "Antonio Maura",
    "number" : "65",
    "address" : "Calle Antonio Maura nº 15",
    "geometry" : {
      "type" : "Point",
      "coordinates" : [ -3.6894193, 40.4166834 ]
    },
    "lines" : null
  }, {
    "id" : 71,
    "name" : "Almadén",
    "number" : "67",
    "address" : "Calle Almadén nº 28",
    "geometry" : {
      "type" : "Point",
      "coordinates" : [ -3.693225, 40.4108472 ]
    },
    "lines" : null
  }, {
    "id" : 72,
    "name" : "Espalter",
    "number" : "68",
    "address" : "Calle Espalter nº 1",
    "geometry" : {
      "type" : "Point",
      "coordinates" : [ -3.6912023, 40.4128372 ]
    },
    "lines" : null
  }, {
    "id" : 73,
    "name" : "Puerta del Ángel Caído",
    "number" : "69",
    "address" : "Avenida de Alfonso XII nº 54",
    "geometry" : {
      "type" : "Point",
      "coordinates" : [ -3.688822, 40.409808 ]
    },
    "lines" : null
  }, {
    "id" : 74,
    "name" : "Puerta del Doce de Octubre",
    "number" : "70",
    "address" : "Avenida de Menéndez Pelayo nº 63",
    "geometry" : {
      "type" : "Point",
      "coordinates" : [ -3.6779232, 40.4153053 ]
    },
    "lines" : null
  }, {
    "id" : 75,
    "name" : "Doce de Octubre",
    "number" : "71",
    "address" : "Calle Doce de Octubre nº 28",
    "geometry" : {
      "type" : "Point",
      "coordinates" : [ -3.6738865, 40.4159569 ]
    },
    "lines" : null
  }, {
    "id" : 76,
    "name" : "Sainz de Baranda",
    "number" : "72",
    "address" : "Calle Doctor Esquerdo nº 99",
    "geometry" : {
      "type" : "Point",
      "coordinates" : [ -3.6691838, 40.4157413 ]
    },
    "lines" : null
  }, {
    "id" : 77,
    "name" : "Plaza de los Astros",
    "number" : "73",
    "address" : "Avenida de Nazaret nº 7",
    "geometry" : {
      "type" : "Point",
      "coordinates" : [ -3.6689089, 40.4114475 ]
    },
    "lines" : null
  }, {
    "id" : 78,
    "name" : "Puerta del Pacífico ",
    "number" : "74",
    "address" : "Avenida de Menéndez Pelayo nº 73",
    "geometry" : {
      "type" : "Point",
      "coordinates" : [ -3.6766813, 40.4117627 ]
    },
    "lines" : null
  }, {
    "id" : 79,
    "name" : "Menéndez Pelayo",
    "number" : "75",
    "address" : "Avenida de Menéndez Pelayo con calle Poeta Esteban Villegas",
    "geometry" : {
      "type" : "Point",
      "coordinates" : [ -3.6784838, 40.4082805 ]
    },
    "lines" : null
  }, {
    "id" : 80,
    "name" : "Puerta de Mariano de Cavia",
    "number" : "76",
    "address" : "Avenida del Mediterráneo nº 19",
    "geometry" : {
      "type" : "Point",
      "coordinates" : [ -3.6751352, 40.4071304 ]
    },
    "lines" : null
  }, {
    "id" : 81,
    "name" : "Conde de Casal",
    "number" : "77",
    "address" : "Plaza del Conde de Casal nº 8",
    "geometry" : {
      "type" : "Point",
      "coordinates" : [ -3.670422, 40.40635 ]
    },
    "lines" : null
  }, {
    "id" : 82,
    "name" : "Pedro Bosch",
    "number" : "78",
    "address" : "Calle Cerro de la Plata nº 2",
    "geometry" : {
      "type" : "Point",
      "coordinates" : [ -3.6744, 40.400789 ]
    },
    "lines" : null
  }, {
    "id" : 83,
    "name" : "Puerta de Granada",
    "number" : "79",
    "address" : "Avenida de Menéndez Pelayo nº 38",
    "geometry" : {
      "type" : "Point",
      "coordinates" : [ -3.6803874, 40.4051451 ]
    },
    "lines" : null
  }, {
    "id" : 84,
    "name" : "Atocha A",
    "number" : "80a",
    "address" : "Paseo de la Infanta Isabel nº 3",
    "geometry" : {
      "type" : "Point",
      "coordinates" : [ -3.6902255, 40.4075685 ]
    },
    "lines" : null
  }, {
    "id" : 85,
    "name" : "Atocha B",
    "number" : "80b",
    "address" : "Paseo de la Infanta Isabel nº 3",
    "geometry" : {
      "type" : "Point",
      "coordinates" : [ -3.6901234, 40.4074902 ]
    },
    "lines" : null
  }, {
    "id" : 86,
    "name" : "Cuesta de Moyano",
    "number" : "81",
    "address" : "Cuesta de Claudio Moyano",
    "geometry" : {
      "type" : "Point",
      "coordinates" : [ -3.691987, 40.409297 ]
    },
    "lines" : null
  }, {
    "id" : 87,
    "name" : "Niño Jesús",
    "number" : "82",
    "address" : "Calle Doctor Esquerdo nº 161",
    "geometry" : {
      "type" : "Point",
      "coordinates" : [ -3.6697526, 40.4084556 ]
    },
    "lines" : null
  }, {
    "id" : 88,
    "name" : "Pío Baroja",
    "number" : "83",
    "address" : "Calle Pío Baroja nº 10",
    "geometry" : {
      "type" : "Point",
      "coordinates" : [ -3.6745323, 40.4132995 ]
    },
    "lines" : null
  }, {
    "id" : 89,
    "name" : "Valderribas",
    "number" : "84",
    "address" : "Calle Doctor Esquerdo nº 191",
    "geometry" : {
      "type" : "Point",
      "coordinates" : [ -3.6726019, 40.4032501 ]
    },
    "lines" : null
  }, {
    "id" : 90,
    "name" : "Puerta de Madrid",
    "number" : "85",
    "address" : "Avenida de Menéndez Pelayo esquina calle O'Donnell",
    "geometry" : {
      "type" : "Point",
      "coordinates" : [ -3.680008, 40.421501 ]
    },
    "lines" : null
  }, {
    "id" : 91,
    "name" : "Cibeles",
    "number" : "86",
    "address" : "Plaza Cibeles",
    "geometry" : {
      "type" : "Point",
      "coordinates" : [ -3.6933498, 40.4186516 ]
    },
    "lines" : null
  }, {
    "id" : 92,
    "name" : "Ayala",
    "number" : "87",
    "address" : "Calle Ayala nº 44",
    "geometry" : {
      "type" : "Point",
      "coordinates" : [ -3.6832566, 40.427736 ]
    },
    "lines" : null
  }, {
    "id" : 93,
    "name" : "Embajada de Italia",
    "number" : "88",
    "address" : "Calle Velázquez nº 75",
    "geometry" : {
      "type" : "Point",
      "coordinates" : [ -3.6838303, 40.4313576 ]
    },
    "lines" : null
  }, {
    "id" : 94,
    "name" : "Conde Peñalver",
    "number" : "89",
    "address" : "Calle Ayala nº 102",
    "geometry" : {
      "type" : "Point",
      "coordinates" : [ -3.6752024, 40.4272582 ]
    },
    "lines" : null
  }, {
    "id" : 95,
    "name" : "General Pardiñas",
    "number" : "90",
    "address" : "Calle Goya nº 18",
    "geometry" : {
      "type" : "Point",
      "coordinates" : [ -3.6837876, 40.4250361 ]
    },
    "lines" : null
  }, {
    "id" : 96,
    "name" : "Príncipe de Vergara",
    "number" : "91",
    "address" : "Calle Hermosilla nº 70",
    "geometry" : {
      "type" : "Point",
      "coordinates" : [ -3.6787441, 40.426134 ]
    },
    "lines" : null
  }, {
    "id" : 97,
    "name" : "Claudio Coello",
    "number" : "92",
    "address" : "Calle Claudio Coello nº 45",
    "geometry" : {
      "type" : "Point",
      "coordinates" : [ -3.6865463, 40.4262945 ]
    },
    "lines" : null
  }, {
    "id" : 98,
    "name" : "Plaza de Colón",
    "number" : "93",
    "address" : "Calle Goya nº 1",
    "geometry" : {
      "type" : "Point",
      "coordinates" : [ -3.6893698, 40.4257046 ]
    },
    "lines" : null
  }, {
    "id" : 99,
    "name" : "Biblioteca Nacional",
    "number" : "94",
    "address" : "Paseo de Recoletos nº 20",
    "geometry" : {
      "type" : "Point",
      "coordinates" : [ -3.690756, 40.4232153 ]
    },
    "lines" : null
  }, {
    "id" : 100,
    "name" : "Villanueva",
    "number" : "95",
    "address" : "Calle Claudio Coello nº 109",
    "geometry" : {
      "type" : "Point",
      "coordinates" : [ -3.6870548, 40.4226584 ]
    },
    "lines" : null
  }, {
    "id" : 101,
    "name" : "Castelló",
    "number" : "96",
    "address" : "Calle Alcalá nº 111",
    "geometry" : {
      "type" : "Point",
      "coordinates" : [ -3.6821793, 40.422064 ]
    },
    "lines" : null
  }, {
    "id" : 102,
    "name" : "Alcalá",
    "number" : "97",
    "address" : "Avenida de Menéndez Pelayo nº 3",
    "geometry" : {
      "type" : "Point",
      "coordinates" : [ -3.6805189, 40.4222969 ]
    },
    "lines" : null
  }, {
    "id" : 103,
    "name" : "Plaza de Felipe II",
    "number" : "98",
    "address" : "Plaza de Felipe II",
    "geometry" : {
      "type" : "Point",
      "coordinates" : [ -3.6758383, 40.4239447 ]
    },
    "lines" : null
  }, {
    "id" : 104,
    "name" : "Alcántara",
    "number" : "99",
    "address" : "Calle Alcántara nº 2",
    "geometry" : {
      "type" : "Point",
      "coordinates" : [ -3.6738714, 40.4261851 ]
    },
    "lines" : null
  }, {
    "id" : 105,
    "name" : "Palacio de Deportes",
    "number" : "100",
    "address" : "Calle Goya nº 99",
    "geometry" : {
      "type" : "Point",
      "coordinates" : [ -3.67384, 40.42478 ]
    },
    "lines" : null
  }, {
    "id" : 106,
    "name" : "Jorge Juan",
    "number" : "101",
    "address" : "Calle Jorge Juan nº 131",
    "geometry" : {
      "type" : "Point",
      "coordinates" : [ -3.6691524, 40.4231526 ]
    },
    "lines" : null
  }, {
    "id" : 107,
    "name" : "Velázquez",
    "number" : "102",
    "address" : "Calle Alcalá nº 95",
    "geometry" : {
      "type" : "Point",
      "coordinates" : [ -3.6840229, 40.4211802 ]
    },
    "lines" : null
  }, {
    "id" : 108,
    "name" : "Ortega y Gasset",
    "number" : "103",
    "address" : "Calle José Ortega y Gasset nº 4",
    "geometry" : {
      "type" : "Point",
      "coordinates" : [ -3.68653, 40.43037 ]
    },
    "lines" : null
  }, {
    "id" : 109,
    "name" : "Castellana",
    "number" : "104",
    "address" : "Paseo de la Castellana nº 4",
    "geometry" : {
      "type" : "Point",
      "coordinates" : [ -3.68958, 40.42677 ]
    },
    "lines" : null
  }, {
    "id" : 110,
    "name" : "Serrano",
    "number" : "105",
    "address" : "Calle Serrano nº 54",
    "geometry" : {
      "type" : "Point",
      "coordinates" : [ -3.68745, 40.42699 ]
    },
    "lines" : null
  }, {
    "id" : 111,
    "name" : "Colón A",
    "number" : "106a",
    "address" : "Calle Serrano nº 34",
    "geometry" : {
      "type" : "Point",
      "coordinates" : [ -3.6877227, 40.4251002 ]
    },
    "lines" : null
  }, {
    "id" : 112,
    "name" : "Colón B",
    "number" : "106b",
    "address" : "Calle Serrano nº 34",
    "geometry" : {
      "type" : "Point",
      "coordinates" : [ -3.687745, 40.424963 ]
    },
    "lines" : null
  }, {
    "id" : 113,
    "name" : "Columela",
    "number" : "107",
    "address" : "Calle Serrano nº 8",
    "geometry" : {
      "type" : "Point",
      "coordinates" : [ -3.6884369, 40.4215246 ]
    },
    "lines" : null
  }, {
    "id" : 114,
    "name" : "Mártires Concepcionistas",
    "number" : "108",
    "address" : "Calle Mártires Concepcionistas nº 2",
    "geometry" : {
      "type" : "Point",
      "coordinates" : [ -3.6706024, 40.4273005 ]
    },
    "lines" : null
  }, {
    "id" : 115,
    "name" : "Marqués de Salamanca",
    "number" : "109",
    "address" : "Calle José Ortega y Gasset nº 30",
    "geometry" : {
      "type" : "Point",
      "coordinates" : [ -3.6816402, 40.4300481 ]
    },
    "lines" : null
  }, {
    "id" : 116,
    "name" : "Moncloa",
    "number" : "110",
    "address" : "Paseo de Moret nº 2",
    "geometry" : {
      "type" : "Point",
      "coordinates" : [ -3.7200845, 40.4347895 ]
    },
    "lines" : null
  }, {
    "id" : 117,
    "name" : "Arcipreste de Hita A",
    "number" : "111a",
    "address" : "Calle Arcipreste de Hita nº 12",
    "geometry" : {
      "type" : "Point",
      "coordinates" : [ -3.7175435, 40.4337322 ]
    },
    "lines" : null
  }, {
    "id" : 118,
    "name" : "Arcipreste de Hita B",
    "number" : "111b",
    "address" : "Calle Arcipreste de Hita nº 12",
    "geometry" : {
      "type" : "Point",
      "coordinates" : [ -3.7179687, 40.4341006 ]
    },
    "lines" : null
  }, {
    "id" : 119,
    "name" : "Paseo de Moret",
    "number" : "112",
    "address" : "Paseo de Moret nº 11",
    "geometry" : {
      "type" : "Point",
      "coordinates" : [ -3.7246532, 40.4325991 ]
    },
    "lines" : null
  }, {
    "id" : 120,
    "name" : "Pintor Rosales",
    "number" : "113",
    "address" : "Paseo del Pintor Rosales frente al nº 38",
    "geometry" : {
      "type" : "Point",
      "coordinates" : [ -3.7205129, 40.427657 ]
    },
    "lines" : null
  }, {
    "id" : 121,
    "name" : "Quintana",
    "number" : "114",
    "address" : "Calle Quintana nº 11",
    "geometry" : {
      "type" : "Point",
      "coordinates" : [ -3.7174158, 40.4277456 ]
    },
    "lines" : null
  }, {
    "id" : 122,
    "name" : "Ferraz",
    "number" : "115",
    "address" : "Calle Evaristo San Miguel nº 2",
    "geometry" : {
      "type" : "Point",
      "coordinates" : [ -3.7170448, 40.4253944 ]
    },
    "lines" : null
  }, {
    "id" : 123,
    "name" : "Plaza de España A",
    "number" : "116a",
    "address" : "Calle Princesa nº 5",
    "geometry" : {
      "type" : "Point",
      "coordinates" : [ -3.713053, 40.423668 ]
    },
    "lines" : null
  }, {
    "id" : 124,
    "name" : "Plaza de España B",
    "number" : "116b",
    "address" : "Calle Princesa nº 5",
    "geometry" : {
      "type" : "Point",
      "coordinates" : [ -3.710537, 40.423681 ]
    },
    "lines" : null
  }, {
    "id" : 125,
    "name" : "Altamirano",
    "number" : "117",
    "address" : "Calle Altamirano nº 24",
    "geometry" : {
      "type" : "Point",
      "coordinates" : [ -3.7188898, 40.4309797 ]
    },
    "lines" : null
  }, {
    "id" : 126,
    "name" : "Juan Martín",
    "number" : "118",
    "address" : "Calle Juan Martín el Empecinado nº 16",
    "geometry" : {
      "type" : "Point",
      "coordinates" : [ -3.6882407, 40.400781 ]
    },
    "lines" : null
  }, {
    "id" : 127,
    "name" : "Méndez Álvaro",
    "number" : "119",
    "address" : "Calle Méndez Álvaro nº 11",
    "geometry" : {
      "type" : "Point",
      "coordinates" : [ -3.6863218, 40.4013216 ]
    },
    "lines" : null
  }, {
    "id" : 128,
    "name" : "Palos de la Frontera",
    "number" : "120",
    "address" : "Calle Palos de la Frontera nº 27",
    "geometry" : {
      "type" : "Point",
      "coordinates" : [ -3.6944768, 40.4032208 ]
    },
    "lines" : null
  }, {
    "id" : 129,
    "name" : "Santa María de la Cabeza",
    "number" : "121",
    "address" : "Paseo de Santa María de la Cabeza nº 58",
    "geometry" : {
      "type" : "Point",
      "coordinates" : [ -3.6987665, 40.4017926 ]
    },
    "lines" : null
  }, {
    "id" : 130,
    "name" : "Santa Engracia 14",
    "number" : "122",
    "address" : "Calle Santa Engracia nº 14",
    "geometry" : {
      "type" : "Point",
      "coordinates" : [ -3.6967169, 40.4291992 ]
    },
    "lines" : null
  }, {
    "id" : 131,
    "name" : "Guzmán el Bueno",
    "number" : "123",
    "address" : "Calle Guzmán el Bueno nº 1",
    "geometry" : {
      "type" : "Point",
      "coordinates" : [ -3.7133412, 40.4306458 ]
    },
    "lines" : null
  }, {
    "id" : 169,
    "name" : "Manuel Silvela",
    "number" : "124",
    "address" : "Calle Manuel Silvela nº 20",
    "geometry" : {
      "type" : "Point",
      "coordinates" : [ -3.6993465, 40.4309524 ]
    },
    "lines" : null
  }, {
    "id" : 164,
    "name" : "General Martínez Campos ",
    "number" : "125",
    "address" : "Calle Fernández de la Hoz nº 29",
    "geometry" : {
      "type" : "Point",
      "coordinates" : [ -3.6948626, 40.435285 ]
    },
    "lines" : null
  }, {
    "id" : 163,
    "name" : "General Álvarez de Castro",
    "number" : "126",
    "address" : "Calle del General Álvarez de Castro nº 1",
    "geometry" : {
      "type" : "Point",
      "coordinates" : [ -3.7015686, 40.4344731 ]
    },
    "lines" : null
  }, {
    "id" : 168,
    "name" : "Fernando el Católico",
    "number" : "127",
    "address" : "Calle Fernando el Católico nº 19",
    "geometry" : {
      "type" : "Point",
      "coordinates" : [ -3.708439, 40.4338516 ]
    },
    "lines" : null
  }, {
    "id" : 160,
    "name" : "Cea Bermúdez",
    "number" : "128",
    "address" : "Calle Cea Bermúdez nº 59",
    "geometry" : {
      "type" : "Point",
      "coordinates" : [ -3.7154329, 40.438994 ]
    },
    "lines" : null
  }, {
    "id" : 161,
    "name" : "José Abascal",
    "number" : "129",
    "address" : "Calle José Abascal nº 33",
    "geometry" : {
      "type" : "Point",
      "coordinates" : [ -3.6982353, 40.4383865 ]
    },
    "lines" : null
  }, {
    "id" : 157,
    "name" : "Santa Engracia 127",
    "number" : "130",
    "address" : "Calle Santa Engracia nº 127",
    "geometry" : {
      "type" : "Point",
      "coordinates" : [ -3.70164, 40.44156 ]
    },
    "lines" : null
  }, {
    "id" : 156,
    "name" : "Bravo Murillo 44",
    "number" : "131",
    "address" : "Calle Bravo Murillo nº 44",
    "geometry" : {
      "type" : "Point",
      "coordinates" : [ -3.7040344, 40.4418402 ]
    },
    "lines" : null
  }, {
    "id" : 149,
    "name" : "Glorieta de los Cuatro Caminos",
    "number" : "132",
    "address" : "Calle Santa Engracia nº 168",
    "geometry" : {
      "type" : "Point",
      "coordinates" : [ -3.7036675, 40.4463667 ]
    },
    "lines" : null
  }, {
    "id" : 150,
    "name" : "Raimundo Fernández",
    "number" : "133",
    "address" : "Calle Raimundo Fernández Villaverde nº 33",
    "geometry" : {
      "type" : "Point",
      "coordinates" : [ -3.7001669, 40.447125 ]
    },
    "lines" : null
  }, {
    "id" : 153,
    "name" : "Agustín de Betancourt",
    "number" : "134",
    "address" : "Calle María de Guzmán nº 58",
    "geometry" : {
      "type" : "Point",
      "coordinates" : [ -3.6956047, 40.4440297 ]
    },
    "lines" : null
  }, {
    "id" : 158,
    "name" : "Plaza de San Juan de la Cruz",
    "number" : "135",
    "address" : "Plaza de San Juan de la Cruz nº 11",
    "geometry" : {
      "type" : "Point",
      "coordinates" : [ -3.6927821, 40.4415974 ]
    },
    "lines" : null
  }, {
    "id" : 151,
    "name" : "Castellana 106",
    "number" : "136",
    "address" : "Paseo de la Castellana nº 106",
    "geometry" : {
      "type" : "Point",
      "coordinates" : [ -3.690861, 40.4453307 ]
    },
    "lines" : null
  }, {
    "id" : 152,
    "name" : "Plaza de la República Argentina",
    "number" : "137",
    "address" : "Plaza de la República Argentina nº 6",
    "geometry" : {
      "type" : "Point",
      "coordinates" : [ -3.6853312, 40.445411 ]
    },
    "lines" : null
  }, {
    "id" : 154,
    "name" : "Paseo de la Castellana con Raimundo Fernández",
    "number" : "138",
    "address" : "Paseo de la Castellana esquina calle Raimundo Fernández Villaverde",
    "geometry" : {
      "type" : "Point",
      "coordinates" : [ -3.6917932, 40.4457414 ]
    },
    "lines" : null
  }, {
    "id" : 159,
    "name" : "José Gutiérrez Abascal ",
    "number" : "139",
    "address" : "Calle José Gutiérrez Abascal nº 2",
    "geometry" : {
      "type" : "Point",
      "coordinates" : [ -3.6907784, 40.4396792 ]
    },
    "lines" : null
  }, {
    "id" : 162,
    "name" : "Velázquez 130",
    "number" : "140",
    "address" : "Calle Velázquez nº 130",
    "geometry" : {
      "type" : "Point",
      "coordinates" : [ -3.6831578, 40.4385127 ]
    },
    "lines" : null
  }, {
    "id" : 165,
    "name" : "Paseo de la Castellana - Glorieta de Emilio Castelar",
    "number" : "141",
    "address" : "Paseo de la Castellana nº 43",
    "geometry" : {
      "type" : "Point",
      "coordinates" : [ -3.6892368, 40.4355143 ]
    },
    "lines" : null
  }, {
    "id" : 167,
    "name" : "Castellana 42",
    "number" : "142",
    "address" : "Paseo de la Castellana nº 42",
    "geometry" : {
      "type" : "Point",
      "coordinates" : [ -3.6879154, 40.4334087 ]
    },
    "lines" : null
  }, {
    "id" : 166,
    "name" : "Diego de León 52",
    "number" : "143",
    "address" : "Calle Diego de León nº 52",
    "geometry" : {
      "type" : "Point",
      "coordinates" : [ -3.678492, 40.4345973 ]
    },
    "lines" : null
  }, {
    "id" : 170,
    "name" : "Juan Bravo 50",
    "number" : "144",
    "address" : "Calle Juan Bravo nº 50",
    "geometry" : {
      "type" : "Point",
      "coordinates" : [ -3.6758555, 40.4323655 ]
    },
    "lines" : null
  }, {
    "id" : 171,
    "name" : "Ortega y Gasset 87",
    "number" : "145",
    "address" : "Calle Ortega y Gasset nº 87",
    "geometry" : {
      "type" : "Point",
      "coordinates" : [ -3.6712823, 40.429887 ]
    },
    "lines" : null
  }, {
    "id" : 155,
    "name" : "María Francisca 1",
    "number" : "146",
    "address" : "Calle María Francisca nº 1",
    "geometry" : {
      "type" : "Point",
      "coordinates" : [ -3.6787169, 40.4442258 ]
    },
    "lines" : null
  }, {
    "id" : 148,
    "name" : "Doctor Arce 45",
    "number" : "147",
    "address" : "Avenida del Doctor Arce nº 45",
    "geometry" : {
      "type" : "Point",
      "coordinates" : [ -3.6797296, 40.4483269 ]
    },
    "lines" : null
  }, {
    "id" : 144,
    "name" : "Serrano 210",
    "number" : "148",
    "address" : "Calle Serrano nº 210",
    "geometry" : {
      "type" : "Point",
      "coordinates" : [ -3.6817962, 40.4510188 ]
    },
    "lines" : null
  }, {
    "id" : 146,
    "name" : "Paseo de la Habana 42",
    "number" : "149",
    "address" : "Paseo de la Habana nº 42",
    "geometry" : {
      "type" : "Point",
      "coordinates" : [ -3.6881689, 40.4498613 ]
    },
    "lines" : null
  }, {
    "id" : 147,
    "name" : "Castellana frente a Hermanos Pinzón",
    "number" : "150",
    "address" : "Paseo de la Castellana nº 122",
    "geometry" : {
      "type" : "Point",
      "coordinates" : [ -3.6905604, 40.4488924 ]
    },
    "lines" : null
  }, {
    "id" : 145,
    "name" : "Orense 12",
    "number" : "151",
    "address" : "Calle Orense nº 12",
    "geometry" : {
      "type" : "Point",
      "coordinates" : [ -3.6952943, 40.4489101 ]
    },
    "lines" : null
  }, {
    "id" : 142,
    "name" : "General Perón 1",
    "number" : "152",
    "address" : "Avenida del General Perón frente al nº 4",
    "geometry" : {
      "type" : "Point",
      "coordinates" : [ -3.6990077, 40.4527164 ]
    },
    "lines" : null
  }, {
    "id" : 143,
    "name" : "General Perón con Poeta Joan Maragall",
    "number" : "153",
    "address" : "Avenida del General Perón frente al nº 36",
    "geometry" : {
      "type" : "Point",
      "coordinates" : [ -3.693085, 40.4522454 ]
    },
    "lines" : null
  }, {
    "id" : 141,
    "name" : "Orense 36",
    "number" : "154",
    "address" : "Calle Orense nº 36",
    "geometry" : {
      "type" : "Point",
      "coordinates" : [ -3.6946218, 40.4548456 ]
    },
    "lines" : null
  }, {
    "id" : 139,
    "name" : "San Germán 57",
    "number" : "155",
    "address" : "Calle San Germán nº 57",
    "geometry" : {
      "type" : "Point",
      "coordinates" : [ -3.7009675, 40.4572824 ]
    },
    "lines" : null
  }, {
    "id" : 140,
    "name" : "Sor Ángela de la Cruz",
    "number" : "156",
    "address" : "Calle Sor Ángela de la Cruz nº 2",
    "geometry" : {
      "type" : "Point",
      "coordinates" : [ -3.691533, 40.4592351 ]
    },
    "lines" : null
  }, {
    "id" : 137,
    "name" : "Castellana 164",
    "number" : "157",
    "address" : "Paseo de la Castellana nº 164",
    "geometry" : {
      "type" : "Point",
      "coordinates" : [ -3.6894151, 40.4591366 ]
    },
    "lines" : null
  }, {
    "id" : 138,
    "name" : "Alberto Alcocer",
    "number" : "158",
    "address" : "Avenida de Alberto Alcocer nº 22",
    "geometry" : {
      "type" : "Point",
      "coordinates" : [ -3.684715, 40.4585318 ]
    },
    "lines" : null
  }, {
    "id" : 173,
    "name" : "Paseo de la Habana 63",
    "number" : "159",
    "address" : "Paseo de la Habana nº 63",
    "geometry" : {
      "type" : "Point",
      "coordinates" : [ -3.6835926, 40.4543852 ]
    },
    "lines" : null
  }, {
    "id" : 172,
    "name" : "Colombia",
    "number" : "160",
    "address" : "Calle Colombia nº 7",
    "geometry" : {
      "type" : "Point",
      "coordinates" : [ -3.6763439, 40.4572466 ]
    },
    "lines" : null
  }, {
    "id" : 132,
    "name" : "Paseo de la Florida",
    "number" : "161",
    "address" : "Paseo de la Florida nº 8",
    "geometry" : {
      "type" : "Point",
      "coordinates" : [ -3.7224983, 40.4219665 ]
    },
    "lines" : null
  }, {
    "id" : 133,
    "name" : "Metro Pirámides",
    "number" : "162",
    "address" : "Paseo de los Olmos nº 28",
    "geometry" : {
      "type" : "Point",
      "coordinates" : [ -3.7108108, 40.4034076 ]
    },
    "lines" : null
  }, {
    "id" : 134,
    "name" : "Paseo de la Esperanza",
    "number" : "163",
    "address" : "Paseo de la Esperanza nº 2",
    "geometry" : {
      "type" : "Point",
      "coordinates" : [ -3.7064516, 40.4035988 ]
    },
    "lines" : null
  }, {
    "id" : 136,
    "name" : "Paseo de las Delicias",
    "number" : "164",
    "address" : "Paseo de las Delicias nº 92",
    "geometry" : {
      "type" : "Point",
      "coordinates" : [ -3.6945025, 40.3972616 ]
    },
    "lines" : null
  }, {
    "id" : 135,
    "name" : "Entrada Matadero",
    "number" : "165",
    "address" : "Paseo de la Chopera nº 14",
    "geometry" : {
      "type" : "Point",
      "coordinates" : [ -3.6975708, 40.3928821 ]
    },
    "lines" : null
  }, {
    "id" : 174,
    "name" : "Segovia 26",
    "number" : "166",
    "address" : "Calle Segovia nº 26",
    "geometry" : {
      "type" : "Point",
      "coordinates" : [ -3.7135833, 40.4138333 ]
    },
    "lines" : null
  }, {
    "id" : 175,
    "name" : "Segovia 45",
    "number" : "167",
    "address" : "Calle Segovia nº 45",
    "geometry" : {
      "type" : "Point",
      "coordinates" : [ -3.717487, 40.413736 ]
    },
    "lines" : null
  }, {
    "id" : 176,
    "name" : "Batalla del Salado",
    "number" : "168",
    "address" : "Paseo Santa María de la Cabeza nº 29",
    "geometry" : {
      "type" : "Point",
      "coordinates" : [ -3.6959166, 40.4044722 ]
    },
    "lines" : null
  }, {
    "id" : 177,
    "name" : "Pirámides",
    "number" : "169",
    "address" : "Calle Toledo nº 181",
    "geometry" : {
      "type" : "Point",
      "coordinates" : [ -3.7138055, 40.4016111 ]
    },
    "lines" : null
  }, {
    "id" : 178,
    "name" : "Paseo de la Esperanza",
    "number" : "170",
    "address" : "Paseo de la Esperanza nº 21",
    "geometry" : {
      "type" : "Point",
      "coordinates" : [ -3.7043611, 40.401 ]
    },
    "lines" : null
  }, {
    "id" : 179,
    "name" : "Embajadores-Cáceres",
    "number" : "171",
    "address" : "Calle Embajadores nº 101",
    "geometry" : {
      "type" : "Point",
      "coordinates" : [ -3.6983888, 40.39975 ]
    },
    "lines" : null
  }, {
    "id" : 180,
    "name" : "Delicias",
    "number" : "172",
    "address" : "Calle Bustamante nº 1",
    "geometry" : {
      "type" : "Point",
      "coordinates" : [ -3.6935833, 40.4008888 ]
    },
    "lines" : null
  }, {
    "id" : 181,
    "name" : "Puente Praga",
    "number" : "173",
    "address" : "Paseo de la Esperanza nº 59",
    "geometry" : {
      "type" : "Point",
      "coordinates" : [ -3.7023918, 40.3981798 ]
    },
    "lines" : null
  }, {
    "id" : 182,
    "name" : "Madrid Río-Yeserías",
    "number" : "174",
    "address" : "Paseo de Yeserías nº 45",
    "geometry" : {
      "type" : "Point",
      "coordinates" : [ -3.7065277, 40.3974444 ]
    },
    "lines" : null
  }, {
    "id" : 183,
    "name" : "Jaime el Conquistador",
    "number" : "175",
    "address" : "Calle Jaime el Conquistador nº 30",
    "geometry" : {
      "type" : "Point",
      "coordinates" : [ -3.6983055, 40.3962222 ]
    },
    "lines" : null
  }, {
    "id" : 184,
    "name" : "Beata",
    "number" : "176",
    "address" : "Calle Alicante nº 3",
    "geometry" : {
      "type" : "Point",
      "coordinates" : [ -3.6937222, 40.39425 ]
    },
    "lines" : null
  }, {
    "id" : 185,
    "name" : "Legazpi",
    "number" : "177",
    "address" : "Calle Bolívar nº 3",
    "geometry" : {
      "type" : "Point",
      "coordinates" : [ -3.6941944, 40.3914722 ]
    },
    "lines" : null
  }, {
    "id" : 186,
    "name" : "Junta Municipal Retiro",
    "number" : "178",
    "address" : "Calle León Gil de Palacio nº 3",
    "geometry" : {
      "type" : "Point",
      "coordinates" : [ -3.6788343, 40.4029202 ]
    },
    "lines" : null
  }, {
    "id" : 187,
    "name" : "Puente de Vallecas",
    "number" : "179",
    "address" : "Avenida de la Albufera nº 6",
    "geometry" : {
      "type" : "Point",
      "coordinates" : [ -3.66925, 40.3979722 ]
    },
    "lines" : null
  }, {
    "id" : 188,
    "name" : "Méndez Álvaro",
    "number" : "180",
    "address" : "Calle Retama nº 5",
    "geometry" : {
      "type" : "Point",
      "coordinates" : [ -3.6758888, 40.3941388 ]
    },
    "lines" : null
  }, {
    "id" : 189,
    "name" : "Retiro-Ibiza",
    "number" : "181",
    "address" : "Calle Ibiza nº 18",
    "geometry" : {
      "type" : "Point",
      "coordinates" : [ -3.6766111, 40.41825 ]
    },
    "lines" : null
  }, {
    "id" : 190,
    "name" : "Parque Roma",
    "number" : "182",
    "address" : "Calle Alcalde Sáinz de Baranda frente al nº 107",
    "geometry" : {
      "type" : "Point",
      "coordinates" : [ -3.6657777, 40.4186666 ]
    },
    "lines" : null
  }, {
    "id" : 191,
    "name" : "Doctor Esquerdo-Hermosilla",
    "number" : "183",
    "address" : "Calle Hermosilla nº 135",
    "geometry" : {
      "type" : "Point",
      "coordinates" : [ -3.669339, 40.425635 ]
    },
    "lines" : null
  }, {
    "id" : 192,
    "name" : "Marqués de Zafra",
    "number" : "184",
    "address" : "Paseo Marqués de Zafra nº 24",
    "geometry" : {
      "type" : "Point",
      "coordinates" : [ -3.6653055, 40.426 ]
    },
    "lines" : null
  }, {
    "id" : 193,
    "name" : "Quinta Fuente del Berro",
    "number" : "185",
    "address" : "Calle Sancho Dávila esquina Paseo Marqués de Zafra",
    "geometry" : {
      "type" : "Point",
      "coordinates" : [ -3.6615277, 40.4250833 ]
    },
    "lines" : null
  }, {
    "id" : 194,
    "name" : "General Pardiñas",
    "number" : "186",
    "address" : "Calle General Pardiñas nº 56",
    "geometry" : {
      "type" : "Point",
      "coordinates" : [ -3.6782777, 40.4290555 ]
    },
    "lines" : null
  }, {
    "id" : 195,
    "name" : "Alcalá-Ventas",
    "number" : "187",
    "address" : "Calle Alejandro González nº 1",
    "geometry" : {
      "type" : "Point",
      "coordinates" : [ -3.6638888, 40.4301666 ]
    },
    "lines" : null
  }, {
    "id" : 196,
    "name" : "Puente de Ventas",
    "number" : "188",
    "address" : "Avenida de Daroca nº 2",
    "geometry" : {
      "type" : "Point",
      "coordinates" : [ -3.6590555, 40.4311944 ]
    },
    "lines" : null
  }, {
    "id" : 197,
    "name" : "Avenida Donostiarra",
    "number" : "189",
    "address" : "Calle Virgen de la Alegría nº 18",
    "geometry" : {
      "type" : "Point",
      "coordinates" : [ -3.6554918, 40.4351256 ]
    },
    "lines" : null
  }, {
    "id" : 198,
    "name" : "Velázquez-Diego de León",
    "number" : "190",
    "address" : "Calle Velázquez nº 91",
    "geometry" : {
      "type" : "Point",
      "coordinates" : [ -3.6835833, 40.4343333 ]
    },
    "lines" : null
  }, {
    "id" : 199,
    "name" : "Diego de león",
    "number" : "191",
    "address" : "Calle Alonso Heredia nº 1",
    "geometry" : {
      "type" : "Point",
      "coordinates" : [ -3.674, 40.4346388 ]
    },
    "lines" : null
  }, {
    "id" : 200,
    "name" : "Avenida de los Toreros",
    "number" : "192",
    "address" : "Avenida de los Toreros nº 3",
    "geometry" : {
      "type" : "Point",
      "coordinates" : [ -3.6714166, 40.4318611 ]
    },
    "lines" : null
  }, {
    "id" : 201,
    "name" : "Ventas",
    "number" : "193",
    "address" : "Avenida de los Toreros nº 49",
    "geometry" : {
      "type" : "Point",
      "coordinates" : [ -3.6655555, 40.4324722 ]
    },
    "lines" : null
  }, {
    "id" : 202,
    "name" : "Avenida de América 2",
    "number" : "194",
    "address" : "Calle Francisco Silvela nº 86",
    "geometry" : {
      "type" : "Point",
      "coordinates" : [ -3.6772222, 40.43725 ]
    },
    "lines" : null
  }, {
    "id" : 203,
    "name" : "Avenida de América 1",
    "number" : "195",
    "address" : "Calle Padre Indalecio Hernández nº 1",
    "geometry" : {
      "type" : "Point",
      "coordinates" : [ -3.6754444, 40.4392222 ]
    },
    "lines" : null
  }, {
    "id" : 204,
    "name" : "Prosperidad",
    "number" : "196",
    "address" : "Calle Suero de Quiñones nº 2",
    "geometry" : {
      "type" : "Point",
      "coordinates" : [ -3.6751388, 40.4441388 ]
    },
    "lines" : null
  }, {
    "id" : 205,
    "name" : "Parque Berlín",
    "number" : "197",
    "address" : "Avenida de Concha Espina nº 34",
    "geometry" : {
      "type" : "Point",
      "coordinates" : [ -3.6780555, 40.4515833 ]
    },
    "lines" : null
  }, {
    "id" : 206,
    "name" : "Rubén Darío",
    "number" : "198",
    "address" : "Glorieta Rubén Darío 2",
    "geometry" : {
      "type" : "Point",
      "coordinates" : [ -3.6915555, 40.4331111 ]
    },
    "lines" : null
  }, {
    "id" : 207,
    "name" : "Fernando el Católico",
    "number" : "199",
    "address" : "Calle Fernando el Católico nº 61",
    "geometry" : {
      "type" : "Point",
      "coordinates" : [ -3.7149166, 40.4343611 ]
    },
    "lines" : null
  }, {
    "id" : 208,
    "name" : "Quevedo",
    "number" : "200",
    "address" : "Glorieta de Quevedo nº 5",
    "geometry" : {
      "type" : "Point",
      "coordinates" : [ -3.7046666, 40.4336944 ]
    },
    "lines" : null
  }, {
    "id" : 209,
    "name" : "Canal",
    "number" : "201",
    "address" : "Calle José Abascal frente al nº 2",
    "geometry" : {
      "type" : "Point",
      "coordinates" : [ -3.7038333, 40.4386944 ]
    },
    "lines" : null
  }, {
    "id" : 210,
    "name" : "Parque Santander",
    "number" : "202",
    "address" : "Calle Santander esquina con Avenida de Filipinas",
    "geometry" : {
      "type" : "Point",
      "coordinates" : [ -3.7080833, 40.4411388 ]
    },
    "lines" : null
  }, {
    "id" : 211,
    "name" : "San Francisco de Sales",
    "number" : "203",
    "address" : "Calle General Ampudia nº 2",
    "geometry" : {
      "type" : "Point",
      "coordinates" : [ -3.7144722, 40.44175 ]
    },
    "lines" : null
  }, {
    "id" : 212,
    "name" : "Cuatro Caminos 2",
    "number" : "204",
    "address" : "Calle Doctor Santero nº 1",
    "geometry" : {
      "type" : "Point",
      "coordinates" : [ -3.7041666, 40.4476666 ]
    },
    "lines" : null
  }, {
    "id" : 213,
    "name" : "Estrecho",
    "number" : "205",
    "address" : "Calle Navarra nº 1",
    "geometry" : {
      "type" : "Point",
      "coordinates" : [ -3.7032777, 40.4535 ]
    },
    "lines" : null
  }, {
    "id" : 214,
    "name" : "Metro Tetuán",
    "number" : "206",
    "address" : "Calle Marqués de Viana nº 3",
    "geometry" : {
      "type" : "Point",
      "coordinates" : [ -3.6989925, 40.4607502 ]
    },
    "lines" : null
  }, {
    "id" : 215,
    "name" : "Remonta",
    "number" : "207",
    "address" : "Calle Azucenas nº 1",
    "geometry" : {
      "type" : "Point",
      "coordinates" : [ -3.6973333, 40.4630277 ]
    },
    "lines" : null
  }, {
    "id" : 216,
    "name" : "Plaza de Castilla",
    "number" : "208",
    "address" : "Paseo de la Castellana nº 216",
    "geometry" : {
      "type" : "Point",
      "coordinates" : [ -3.6886388, 40.4663611 ]
    },
    "lines" : null
  }, {
    "id" : 217,
    "name" : "Plaza de Castilla 2",
    "number" : "209",
    "address" : "Paseo Castellana (Fundación Canal)",
    "geometry" : {
      "type" : "Point",
      "coordinates" : [ -3.6887722, 40.4656779 ]
    },
    "lines" : null
  }, {
    "id" : 218,
    "name" : "Tres Cruces",
    "number" : "210",
    "address" : "Calle Tres Cruces nº 7",
    "geometry" : {
      "type" : "Point",
      "coordinates" : [ -3.7026735, 40.419674 ]
    },
    "lines" : null
  }, {
    "id" : 219,
    "name" : "Desengaño",
    "number" : "211",
    "address" : "Calle Desengaño nº 1",
    "geometry" : {
      "type" : "Point",
      "coordinates" : [ -3.70239, 40.42059 ]
    },
    "lines" : null
  }, {
    "id" : 220,
    "name" : "Marqués de Vadillo",
    "number" : "212",
    "address" : "Glorieta Marqués de Vadillo nº 9",
    "geometry" : {
      "type" : "Point",
      "coordinates" : [ -3.716591, 40.398247 ]
    },
    "lines" : null
  }, {
    "id" : 221,
    "name" : "Glorieta de Cádiz",
    "number" : "213",
    "address" : "Calle Antonio López nº 129",
    "geometry" : {
      "type" : "Point",
      "coordinates" : [ -3.70017, 40.38895 ]
    },
    "lines" : null
  }, {
    "id" : 222,
    "name" : "Condesa de Venadito",
    "number" : "214",
    "address" : "Calle Condesa de Venadito nº 2",
    "geometry" : {
      "type" : "Point",
      "coordinates" : [ -3.65741, 40.44315 ]
    },
    "lines" : null
  }, {
    "id" : 223,
    "name" : "Gutierre de Cetina",
    "number" : "215",
    "address" : "Calle Gutierre de Cetina nº 77",
    "geometry" : {
      "type" : "Point",
      "coordinates" : [ -3.640994, 40.429706 ]
    },
    "lines" : null
  }, {
    "id" : 224,
    "name" : "Puerta del Ángel",
    "number" : "216",
    "address" : "Plaza Puerta del Ángel nº 4",
    "geometry" : {
      "type" : "Point",
      "coordinates" : [ -3.728318, 40.413764 ]
    },
    "lines" : null
  }, {
    "id" : 225,
    "name" : "Pedro Rico",
    "number" : "217",
    "address" : "Calle Pedro Rico nº 4",
    "geometry" : {
      "type" : "Point",
      "coordinates" : [ -3.688463, 40.481086 ]
    },
    "lines" : null
  }, {
    "id" : 226,
    "name" : "Camino Vinateros",
    "number" : "218",
    "address" : "Calle Camino de los Vinateros nº 28",
    "geometry" : {
      "type" : "Point",
      "coordinates" : [ -3.65779, 40.41053 ]
    },
    "lines" : null
  }, {
    "id" : 227,
    "name" : "Marroquina",
    "number" : "219",
    "address" : "Calle Camino de los Vinateros nº 108",
    "geometry" : {
      "type" : "Point",
      "coordinates" : [ -3.646697, 40.408264 ]
    },
    "lines" : null
  }, {
    "id" : 228,
    "name" : "Plaza del Encuentro",
    "number" : "220",
    "address" : "Calle Arroyo de las Pilillas nº 6",
    "geometry" : {
      "type" : "Point",
      "coordinates" : [ -3.65122, 40.40617 ]
    },
    "lines" : null
  }, {
    "id" : 229,
    "name" : "Pavones",
    "number" : "221",
    "address" : "Calle Hacienda de Pavones nº 342",
    "geometry" : {
      "type" : "Point",
      "coordinates" : [ -3.634587, 40.400368 ]
    },
    "lines" : null
  }, {
    "id" : 230,
    "name" : "Antonio López",
    "number" : "222",
    "address" : "Calle Eugenio Caxes frente al nº 12",
    "geometry" : {
      "type" : "Point",
      "coordinates" : [ -3.7026789, 40.3917871 ]
    },
    "lines" : null
  }, {
    "id" : 231,
    "name" : "Ermita Santo",
    "number" : "223",
    "address" : "Paseo de la Ermita del Santo nº 48",
    "geometry" : {
      "type" : "Point",
      "coordinates" : [ -3.7244893989507686, 40.406837862773465 ]
    },
    "lines" : null
  }, {
    "id" : 232,
    "name" : "Caramuel",
    "number" : "224",
    "address" : "Calle Caramuel nº 51",
    "geometry" : {
      "type" : "Point",
      "coordinates" : [ -3.728533714316331, 40.40913630273305 ]
    },
    "lines" : null
  }, {
    "id" : 233,
    "name" : "Doctor Lozano",
    "number" : "225",
    "address" : "Calle Sierra Toledana nº 33",
    "geometry" : {
      "type" : "Point",
      "coordinates" : [ -3.660188083470652, 40.40248333540473 ]
    },
    "lines" : null
  }, {
    "id" : 234,
    "name" : "Sierra Toledana",
    "number" : "226",
    "address" : "Camino de Valderribas nº 94",
    "geometry" : {
      "type" : "Point",
      "coordinates" : [ -3.6607768678037744, 40.39901531507069 ]
    },
    "lines" : null
  }, {
    "id" : 236,
    "name" : "Concordia",
    "number" : "227",
    "address" : "Calle Arroyo del Olivar nº 6",
    "geometry" : {
      "type" : "Point",
      "coordinates" : [ -3.6659362429356372, 40.39382977920336 ]
    },
    "lines" : null
  }, {
    "id" : 235,
    "name" : "San Delfín",
    "number" : "228",
    "address" : "Calle San Delfín nº 9",
    "geometry" : {
      "type" : "Point",
      "coordinates" : [ -3.7080429728445563, 40.39440607959559 ]
    },
    "lines" : null
  }, {
    "id" : 237,
    "name" : "C.D. Concepción",
    "number" : "229",
    "address" : "Calle Jose del Hierro nº 5",
    "geometry" : {
      "type" : "Point",
      "coordinates" : [ -3.64835857929032, 40.43715089959262 ]
    },
    "lines" : null
  }, {
    "id" : 238,
    "name" : "Carlota O’Neill",
    "number" : "230",
    "address" : "Calle Carlota O'Neill nº 32",
    "geometry" : {
      "type" : "Point",
      "coordinates" : [ -3.648958444298144, 40.44370542379883 ]
    },
    "lines" : null
  }, {
    "id" : 239,
    "name" : "Derechos Humanos",
    "number" : "231",
    "address" : "Calle Derechos Humanos nº 12",
    "geometry" : {
      "type" : "Point",
      "coordinates" : [ -3.6557656204708775, 40.43965673033275 ]
    },
    "lines" : null
  }, {
    "id" : 240,
    "name" : "José María Pereda",
    "number" : "232",
    "address" : "Calle José María de Pereda nº 1",
    "geometry" : {
      "type" : "Point",
      "coordinates" : [ -3.6485306152875148, 40.43272086245887 ]
    },
    "lines" : null
  }, {
    "id" : 241,
    "name" : "Marqués de Corbera 12",
    "number" : "233",
    "address" : "Avenida Marqués de Corbera nº 12",
    "geometry" : {
      "type" : "Point",
      "coordinates" : [ -3.6555552857442697, 40.422962108947424 ]
    },
    "lines" : null
  }, {
    "id" : 242,
    "name" : "Marqués de Corbera 52",
    "number" : "234",
    "address" : "Avenida Marqués de Corbera nº 52",
    "geometry" : {
      "type" : "Point",
      "coordinates" : [ -3.651034981803642, 40.426207143200884 ]
    },
    "lines" : null
  }, {
    "id" : 243,
    "name" : "Embajadores 191",
    "number" : "235",
    "address" : "Calle Sodio nº 1B",
    "geometry" : {
      "type" : "Point",
      "coordinates" : [ -3.6903589643353483, 40.389258643579105 ]
    },
    "lines" : null
  }, {
    "id" : 244,
    "name" : "Paseo Imperial",
    "number" : "236",
    "address" : "Paseo Imperial nº 20",
    "geometry" : {
      "type" : "Point",
      "coordinates" : [ -3.7172213778842007, 40.40765396169372 ]
    },
    "lines" : null
  }, {
    "id" : 245,
    "name" : "Pablo Iglesias",
    "number" : "237",
    "address" : "Calle Francisco Balseiro nº 1",
    "geometry" : {
      "type" : "Point",
      "coordinates" : [ -3.710525, 40.451333 ]
    },
    "lines" : null
  }, {
    "id" : 246,
    "name" : "San Germán 5",
    "number" : "238",
    "address" : "Calle San Germán nº 5",
    "geometry" : {
      "type" : "Point",
      "coordinates" : [ -3.6929376751795306, 40.45619382579544 ]
    },
    "lines" : null
  }, {
    "id" : 247,
    "name" : "Francos Rodríguez",
    "number" : "239",
    "address" : "Calle Francos Rodríguez nº 62",
    "geometry" : {
      "type" : "Point",
      "coordinates" : [ -3.708002730875242, 40.45673408797698 ]
    },
    "lines" : null
  }, {
    "id" : 248,
    "name" : "Avenida Brasilia",
    "number" : "240",
    "address" : "Avenida de Brasilia frente al nº 9",
    "geometry" : {
      "type" : "Point",
      "coordinates" : [ -3.66096, 40.43666 ]
    },
    "lines" : null
  }, {
    "id" : 249,
    "name" : "Camilo José Cela",
    "number" : "241",
    "address" : "Avenida de Camilo José Cela nº 23",
    "geometry" : {
      "type" : "Point",
      "coordinates" : [ -3.66779, 40.4378 ]
    },
    "lines" : null
  }, {
    "id" : 250,
    "name" : "Avenida Bruselas",
    "number" : "242",
    "address" : "Avenida Bruselas nº 56",
    "geometry" : {
      "type" : "Point",
      "coordinates" : [ -3.66301, 40.43865 ]
    },
    "lines" : null
  }, {
    "id" : 251,
    "name" : "Cartagena",
    "number" : "243",
    "address" : "Calle Cartagena nº 34",
    "geometry" : {
      "type" : "Point",
      "coordinates" : [ -3.67012, 40.43503 ]
    },
    "lines" : null
  }, {
    "id" : 252,
    "name" : "Hospital Clínico",
    "number" : "244",
    "address" : "Calle Isaac Peral nº 44",
    "geometry" : {
      "type" : "Point",
      "coordinates" : [ -3.71757, 40.44003 ]
    },
    "lines" : null
  }, {
    "id" : 253,
    "name" : "Galileo",
    "number" : "245",
    "address" : "Calle Galileo nº 63",
    "geometry" : {
      "type" : "Point",
      "coordinates" : [ -3.71019, 40.4364 ]
    },
    "lines" : null
  }, {
    "id" : 254,
    "name" : "Santa Engracia 87",
    "number" : "246",
    "address" : "Calle Santa Engracia nº 87",
    "geometry" : {
      "type" : "Point",
      "coordinates" : [ -3.69928, 40.43604 ]
    },
    "lines" : null
  }, {
    "id" : 270,
    "name" : "Zurbano",
    "number" : "247",
    "address" : "Calle Zurbano nº 90",
    "geometry" : {
      "type" : "Point",
      "coordinates" : [ -3.69281, 40.43837 ]
    },
    "lines" : null
  }, {
    "id" : 256,
    "name" : "Torre Cepsa",
    "number" : "248",
    "address" : "Calle Sinesio Delgado nº 2",
    "geometry" : {
      "type" : "Point",
      "coordinates" : [ -3.68797, 40.47435 ]
    },
    "lines" : null
  }, {
    "id" : 257,
    "name" : "Manuel Caldeiro",
    "number" : "249",
    "address" : "Paseo de la Castellana nº 298",
    "geometry" : {
      "type" : "Point",
      "coordinates" : [ -3.68532, 40.47938 ]
    },
    "lines" : null
  }, {
    "id" : 258,
    "name" : "Serrano 113",
    "number" : "250",
    "address" : "Calle Serrano nº 113B",
    "geometry" : {
      "type" : "Point",
      "coordinates" : [ -3.68609, 40.44106 ]
    },
    "lines" : null
  }, {
    "id" : 259,
    "name" : "Corazón de María",
    "number" : "251",
    "address" : "Calle Santa Hortensia nº 31",
    "geometry" : {
      "type" : "Point",
      "coordinates" : [ -3.66683, 40.44421 ]
    },
    "lines" : null
  }, {
    "id" : 260,
    "name" : "Chamartín",
    "number" : "252",
    "address" : "Calle Rodríguez Jaén nº 40",
    "geometry" : {
      "type" : "Point",
      "coordinates" : [ -3.68391, 40.4716 ]
    },
    "lines" : null
  }, {
    "id" : 261,
    "name" : "Doctor Fleming",
    "number" : "253",
    "address" : "Calle Doctor Fleming nº 7",
    "geometry" : {
      "type" : "Point",
      "coordinates" : [ -3.68844, 40.45546 ]
    },
    "lines" : null
  }, {
    "id" : 262,
    "name" : "Pío XII",
    "number" : "254",
    "address" : "Avenida Pío XII nº 3",
    "geometry" : {
      "type" : "Point",
      "coordinates" : [ -3.67712, 40.46041 ]
    },
    "lines" : null
  }, {
    "id" : 263,
    "name" : "López Pozas",
    "number" : "255",
    "address" : "Calle General López Pozas nº 2",
    "geometry" : {
      "type" : "Point",
      "coordinates" : [ -3.68514, 40.46361 ]
    },
    "lines" : null
  }, {
    "id" : 264,
    "name" : "Reina Victoria",
    "number" : "256",
    "address" : "Calle Beatriz de Bobadilla frente al nº 2",
    "geometry" : {
      "type" : "Point",
      "coordinates" : [ -3.71383, 40.44635 ]
    },
    "lines" : null
  }, {
    "id" : 265,
    "name" : "INEF",
    "number" : "257",
    "address" : "Avenida Juan de Herrera frente a la calle Paul Guinard",
    "geometry" : {
      "type" : "Point",
      "coordinates" : [ -3.72997, 40.43896 ]
    },
    "lines" : null
  }, {
    "id" : 266,
    "name" : "Ciudad Universitaria 1",
    "number" : "258",
    "address" : "Avenida de la Complutense (Metro Ciudad Universitaria)",
    "geometry" : {
      "type" : "Point",
      "coordinates" : [ -3.72699, 40.44375 ]
    },
    "lines" : null
  }, {
    "id" : 267,
    "name" : "Ciudad Universitaria 2",
    "number" : "259",
    "address" : "Avenida de la Complutense (Metro Ciudad Universitaria)",
    "geometry" : {
      "type" : "Point",
      "coordinates" : [ -3.72693, 40.44342 ]
    },
    "lines" : null
  }, {
    "id" : 268,
    "name" : "Facultad Biología",
    "number" : "260",
    "address" : "Calle José Antonio Novais frente al nº 12",
    "geometry" : {
      "type" : "Point",
      "coordinates" : [ -3.7272945, 40.4483322 ]
    },
    "lines" : null
  }, {
    "id" : 269,
    "name" : "Facultad Derecho",
    "number" : "261",
    "address" : "Avenida Complutense nº 23",
    "geometry" : {
      "type" : "Point",
      "coordinates" : [ -3.72937, 40.45109 ]
    },
    "lines" : null
  } ],
  "name" : "Stops_Bicycle"
}